{
"RECORDS":[
{
"GymID":"B001B0I5VC",
"GymName":"湖北省全民健身中心(体育馆路)",
"GymType":"体育休闲服务;运动场馆;健身中心",
"GymTypecode":"080111",
"GymAddress":"体育馆路特1号",
"GymLng":114.32779354545062,
"GymLat":30.55086095792263,
"GymTel":null,
"GymPname":"湖北省",
"GymCityname":"武汉市",
"GymAdname":"武昌区",
"GymShopinfo":"0",
"GymCheckInNum":null
},
{
"GymID":"B001B0IHY2",
"GymName":"非度健身会馆",
"GymType":"体育休闲服务;运动场馆;健身中心",
"GymTypecode":"080111",
"GymAddress":"台北一路31号中侨观邸B栋1-2层(青少年宫足球场对面)",
"GymLng":114.2756048828342,
"GymLat":30.596136520654547,
"GymTel":"027-85484107",
"GymPname":"湖北省",
"GymCityname":"武汉市",
"GymAdname":"江岸区",
"GymShopinfo":"0",
"GymCheckInNum":null
},
{
"GymID":"B001B0IRFJ",
"GymName":"洪山公园-健身舞场",
"GymType":"体育休闲服务;运动场馆;健身中心",
"GymTypecode":"080111",
"GymAddress":"武珞路509号",
"GymLng":114.33040256424044,
"GymLat":30.536335889618325,
"GymTel":null,
"GymPname":"湖北省",
"GymCityname":"武汉市",
"GymAdname":"武昌区",
"GymShopinfo":"0",
"GymCheckInNum":null
},
{
"GymID":"B001B0IUG6",
"GymName":"伯牙瑜伽会馆",
"GymType":"体育休闲服务;运动场馆;健身中心",
"GymTypecode":"080111",
"GymAddress":"汉阳大道134号汉商大厦写字楼13层1307号",
"GymLng":114.26151119436514,
"GymLat":30.55155136865833,
"GymTel":"027-84816861;13517257193",
"GymPname":"湖北省",
"GymCityname":"武汉市",
"GymAdname":"汉阳区",
"GymShopinfo":"0",
"GymCheckInNum":null
},
{
"GymID":"B001B0IUWQ",
"GymName":"一兆韦德健身会所(锦江店)",
"GymType":"体育休闲服务;运动场馆;健身中心",
"GymTypecode":"080111",
"GymAddress":"建设大道707号武汉锦江国际大酒店5层",
"GymLng":114.26526644989521,
"GymLat":30.598855314076317,
"GymTel":"13037140021",
"GymPname":"湖北省",
"GymCityname":"武汉市",
"GymAdname":"江汉区",
"GymShopinfo":"0",
"GymCheckInNum":null
},
{
"GymID":"B001B0IY01",
"GymName":"武汉清心瑜伽会所",
"GymType":"体育休闲服务;运动场馆;健身中心",
"GymTypecode":"080111",
"GymAddress":"珞喻路1鹏程国际A座2303",
"GymLng":114.34876734522572,
"GymLat":30.529378225631543,
"GymTel":"027-87662723",
"GymPname":"湖北省",
"GymCityname":"武汉市",
"GymAdname":"洪山区",
"GymShopinfo":"0",
"GymCheckInNum":null
},
{
"GymID":"B001B0J3YF",
"GymName":"科技王健身会馆",
"GymType":"体育休闲服务;运动场馆;健身中心",
"GymTypecode":"080111",
"GymAddress":"江汉四路3号科技王",
"GymLng":114.28081091261416,
"GymLat":30.584852589804775,
"GymTel":null,
"GymPname":"湖北省",
"GymCityname":"武汉市",
"GymAdname":"江汉区",
"GymShopinfo":"0",
"GymCheckInNum":null
},
{
"GymID":"B001B0J4B8",
"GymName":"紫宸瑜伽(徐东店)",
"GymType":"体育休闲服务;运动场馆;健身中心",
"GymTypecode":"080111",
"GymAddress":"徐东大街7号欧洲花园8栋2单元1202室(徐东平价、新世界附近)",
"GymLng":114.34230707914232,
"GymLat":30.59218406122598,
"GymTel":"027-88613652;13986048489",
"GymPname":"湖北省",
"GymCityname":"武汉市",
"GymAdname":"武昌区",
"GymShopinfo":"0",
"GymCheckInNum":null
},
{
"GymID":"B001B0J4CK",
"GymName":"元泉瑜伽(街道口店)",
"GymType":"体育休闲服务;运动场馆;健身中心",
"GymTypecode":"080111",
"GymAddress":"武昌武珞路717号街道口兆富国际大厦28楼(近新世界购物中心)",
"GymLng":114.34432448934331,
"GymLat":30.530594349028082,
"GymTel":"027-87864687;027-87661950",
"GymPname":"湖北省",
"GymCityname":"武汉市",
"GymAdname":"洪山区",
"GymShopinfo":"0",
"GymCheckInNum":null
},
{
"GymID":"B001B0J7HP",
"GymName":"天竺瑜伽(沌口店)",
"GymType":"体育休闲服务;运动场馆;健身中心",
"GymTypecode":"080111",
"GymAddress":"观湖路金荷花园A区",
"GymLng":114.14912928562175,
"GymLat":30.495696853358105,
"GymTel":"027-84291822",
"GymPname":"湖北省",
"GymCityname":"武汉市",
"GymAdname":"蔡甸区",
"GymShopinfo":"0",
"GymCheckInNum":null
},
{
"GymID":"B001B0JXID",
"GymName":"刘勇国际健身会(家乐福店)",
"GymType":"体育休闲服务;运动场馆;健身中心",
"GymTypecode":"080111",
"GymAddress":"中山大道244号5层",
"GymLng":114.26316430428946,
"GymLat":30.570930394946014,
"GymTel":"027-85254540",
"GymPname":"湖北省",
"GymCityname":"武汉市",
"GymAdname":"硚口区",
"GymShopinfo":"0",
"GymCheckInNum":null
},
{
"GymID":"B001B0K94D",
"GymName":"威尔士健身俱乐部(武汉店)",
"GymType":"体育休闲服务;运动场馆;健身中心",
"GymTypecode":"080111",
"GymAddress":"滨江大道188号世茂锦绣长江花园会所5楼(近西大街小学)",
"GymLng":114.26906900503407,
"GymLat":30.542762474932832,
"GymTel":"027-68845218;027-68845219",
"GymPname":"湖北省",
"GymCityname":"武汉市",
"GymAdname":"汉阳区",
"GymShopinfo":"0",
"GymCheckInNum":null
},
{
"GymID":"B001B15XOO",
"GymName":"中体倍力健身俱乐部(解放大道店)",
"GymType":"体育休闲服务;运动场馆;健身中心",
"GymTypecode":"080111",
"GymAddress":"解放大道崇仁路口武汉体育馆2楼",
"GymLng":114.25477348194653,
"GymLat":30.579546866436235,
"GymTel":"027-59885988",
"GymPname":"湖北省",
"GymCityname":"武汉市",
"GymAdname":"硚口区",
"GymShopinfo":"0",
"GymCheckInNum":null
},
{
"GymID":"B001B16LDJ",
"GymName":"巨人健身俱乐部",
"GymType":"体育休闲服务;运动场馆;健身中心",
"GymTypecode":"080111",
"GymAddress":"江夏大道36号4层",
"GymLng":114.32363639692791,
"GymLat":30.353873570109112,
"GymTel":"027-81810868",
"GymPname":"湖北省",
"GymCityname":"武汉市",
"GymAdname":"江夏区",
"GymShopinfo":"0",
"GymCheckInNum":null
},
{
"GymID":"B001B16QKV",
"GymName":"赛格(山道)国际健身美容俱乐部(汉口店)",
"GymType":"体育休闲服务;运动场馆;健身中心",
"GymTypecode":"080111",
"GymAddress":"建设大道937号王府花园家乐福超市4层",
"GymLng":114.2804441042312,
"GymLat":30.609381525858556,
"GymTel":"027-82900558;027-82434861;15717107166",
"GymPname":"湖北省",
"GymCityname":"武汉市",
"GymAdname":"江岸区",
"GymShopinfo":"0",
"GymCheckInNum":null
},
{
"GymID":"B001B16SLQ",
"GymName":"体限健身俱乐部",
"GymType":"体育休闲服务;运动场馆;健身中心",
"GymTypecode":"080111",
"GymAddress":"鲁磨路388号中国地质大学北区超市楼上(近地大北综楼)",
"GymLng":114.39269415822368,
"GymLat":30.531142791001443,
"GymTel":"027-87680600",
"GymPname":"湖北省",
"GymCityname":"武汉市",
"GymAdname":"洪山区",
"GymShopinfo":"0",
"GymCheckInNum":null
},
{
"GymID":"B001B16VT2",
"GymName":"中南欢乐汇",
"GymType":"体育休闲服务;运动场馆;健身中心",
"GymTypecode":"080111",
"GymAddress":"丁字桥路银河苑B座0106",
"GymLng":114.32543798183266,
"GymLat":30.532636565131583,
"GymTel":"027-87310160",
"GymPname":"湖北省",
"GymCityname":"武汉市",
"GymAdname":"武昌区",
"GymShopinfo":"0",
"GymCheckInNum":null
},
{
"GymID":"B001B16WLX",
"GymName":"斯博特健身(江夏大道)",
"GymType":"体育休闲服务;运动场馆;健身中心",
"GymTypecode":"080111",
"GymAddress":"江夏大道梅南山居1层",
"GymLng":114.36666447965028,
"GymLat":30.41275451157968,
"GymTel":"027-51113701;027-50662636",
"GymPname":"湖北省",
"GymCityname":"武汉市",
"GymAdname":"江夏区",
"GymShopinfo":"0",
"GymCheckInNum":null
},
{
"GymID":"B001B17FQA",
"GymName":"武汉经济技术开发区(汉南区)全民健身中心",
"GymType":"体育休闲服务;运动场馆;健身中心",
"GymTypecode":"080111",
"GymAddress":"兴城大道与银莲路交叉口西北100米",
"GymLng":114.06528786343067,
"GymLat":30.31178810434656,
"GymTel":null,
"GymPname":"湖北省",
"GymCityname":"武汉市",
"GymAdname":"汉南区",
"GymShopinfo":"0",
"GymCheckInNum":null
},
{
"GymID":"B001B17GFL",
"GymName":"邾城全民健身中心",
"GymType":"体育休闲服务;运动场馆;健身中心",
"GymTypecode":"080111",
"GymAddress":"永安大道19号",
"GymLng":114.80323968280729,
"GymLat":30.84032268264062,
"GymTel":null,
"GymPname":"湖北省",
"GymCityname":"武汉市",
"GymAdname":"新洲区",
"GymShopinfo":"0",
"GymCheckInNum":null
},
{
"GymID":"B001B18PC7",
"GymName":"武汉静馨瑜伽养生馆",
"GymType":"体育休闲服务;运动场馆;健身中心",
"GymTypecode":"080111",
"GymAddress":"黄兴路沃尔玛4楼长青六藝园舞蹈部(近中山大道车站路附近)",
"GymLng":114.29298249328106,
"GymLat":30.593431829842185,
"GymTel":"13659848103;15327139002",
"GymPname":"湖北省",
"GymCityname":"武汉市",
"GymAdname":"江岸区",
"GymShopinfo":"0",
"GymCheckInNum":null
},
{
"GymID":"B001B19I0R",
"GymName":"新港国际大酒店-健身中心",
"GymType":"体育休闲服务;运动场馆;健身中心",
"GymTypecode":"080111",
"GymAddress":"余泊路特1号新港国际大酒店",
"GymLng":114.56452873573633,
"GymLat":30.706317212582828,
"GymTel":null,
"GymPname":"湖北省",
"GymCityname":"武汉市",
"GymAdname":"新洲区",
"GymShopinfo":"0",
"GymCheckInNum":null
},
{
"GymID":"B001B1BMR3",
"GymName":"山道健身(沌口店)",
"GymType":"体育休闲服务;运动场馆;健身中心",
"GymTypecode":"080111",
"GymAddress":"宁康路58号湘隆时代商业广场武商量贩5层",
"GymLng":114.1627486548857,
"GymLat":30.50062437929705,
"GymTel":"027-84478731",
"GymPname":"湖北省",
"GymCityname":"武汉市",
"GymAdname":"蔡甸区",
"GymShopinfo":"0",
"GymCheckInNum":null
},
{
"GymID":"B001B1BMSW",
"GymName":"熙飞健身",
"GymType":"体育休闲服务;运动场馆;健身中心",
"GymTypecode":"080111",
"GymAddress":"红旗广场四区2层",
"GymLng":114.79613806930256,
"GymLat":30.843116208999646,
"GymTel":"027-86979288;15072478645",
"GymPname":"湖北省",
"GymCityname":"武汉市",
"GymAdname":"新洲区",
"GymShopinfo":"0",
"GymCheckInNum":null
},
{
"GymID":"B001B1BNL5",
"GymName":"原动力健身",
"GymType":"体育休闲服务;运动场馆;健身中心",
"GymTypecode":"080111",
"GymAddress":"珞喻路1037号华中科技大学光谷体育馆",
"GymLng":114.41191847974811,
"GymLat":30.51018706796109,
"GymTel":"027-87480529",
"GymPname":"湖北省",
"GymCityname":"武汉市",
"GymAdname":"洪山区",
"GymShopinfo":"0",
"GymCheckInNum":null
},
{
"GymID":"B001B1BPCE",
"GymName":"首义健身",
"GymType":"体育休闲服务;运动场馆;健身中心",
"GymTypecode":"080111",
"GymAddress":"紫阳街办事处紫阳路工程营社区21号",
"GymLng":114.3026102946496,
"GymLat":30.53990190236093,
"GymTel":null,
"GymPname":"湖北省",
"GymCityname":"武汉市",
"GymAdname":"武昌区",
"GymShopinfo":"0",
"GymCheckInNum":null
},
{
"GymID":"B001B1BQGS",
"GymName":"国玉健身培训俱乐部",
"GymType":"体育休闲服务;运动场馆;健身中心",
"GymTypecode":"080111",
"GymAddress":"江宏新村69号",
"GymLng":114.30902930848178,
"GymLat":30.52173619476549,
"GymTel":"13098852636",
"GymPname":"湖北省",
"GymCityname":"武汉市",
"GymAdname":"武昌区",
"GymShopinfo":"0",
"GymCheckInNum":null
},
{
"GymID":"B001B1BQIJ",
"GymName":"华中科技大学健身馆",
"GymType":"体育休闲服务;运动场馆;健身中心",
"GymTypecode":"080111",
"GymAddress":"珞瑜路1037号华中科技大学",
"GymLng":114.40264974911211,
"GymLat":30.515165223739324,
"GymTel":null,
"GymPname":"湖北省",
"GymCityname":"武汉市",
"GymAdname":"洪山区",
"GymShopinfo":"0",
"GymCheckInNum":null
},
{
"GymID":"B001B1BYXE",
"GymName":"雅玛瑜伽(中北路)",
"GymType":"体育休闲服务;运动场馆;健身中心",
"GymTypecode":"080111",
"GymAddress":"中北路1号楚天都市花园B座10",
"GymLng":114.33244800982037,
"GymLat":30.55075317440279,
"GymTel":"027-87827827;15907126181",
"GymPname":"湖北省",
"GymCityname":"武汉市",
"GymAdname":"武昌区",
"GymShopinfo":"0",
"GymCheckInNum":null
},
{
"GymID":"B001B1BZC4",
"GymName":"玛莎女子健身会所",
"GymType":"体育休闲服务;运动场馆;健身中心",
"GymTypecode":"080111",
"GymAddress":"汉阳大道137号钟家村汉商B座7层",
"GymLng":114.2621291088022,
"GymLat":30.551734899858545,
"GymTel":"027-51236219;027-87871858",
"GymPname":"湖北省",
"GymCityname":"武汉市",
"GymAdname":"汉阳区",
"GymShopinfo":"0",
"GymCheckInNum":null
},
{
"GymID":"B001B1BZEZ",
"GymName":"学海健身中心",
"GymType":"体育休闲服务;运动场馆;健身中心",
"GymTypecode":"080111",
"GymAddress":"武汉理工大学鉴湖校区内",
"GymLng":114.33848140145506,
"GymLat":30.517347938462922,
"GymTel":"13006190588",
"GymPname":"湖北省",
"GymCityname":"武汉市",
"GymAdname":"洪山区",
"GymShopinfo":"0",
"GymCheckInNum":null
},
{
"GymID":"B001B1C1PL",
"GymName":"烟花三月健康会馆(青广店)",
"GymType":"体育休闲服务;运动场馆;健身中心",
"GymTypecode":"080111",
"GymAddress":"工业二路2附2号",
"GymLng":114.38996623312318,
"GymLat":30.63782730420589,
"GymTel":"027-86358385",
"GymPname":"湖北省",
"GymCityname":"武汉市",
"GymAdname":"青山区",
"GymShopinfo":"0",
"GymCheckInNum":null
},
{
"GymID":"B001B1C1VR",
"GymName":"四唯街袁家社区体育健身中心",
"GymType":"体育休闲服务;运动场馆;健身中心",
"GymTypecode":"080111",
"GymAddress":"袁家墩130号",
"GymLng":114.29865198961339,
"GymLat":30.607266101390664,
"GymTel":null,
"GymPname":"湖北省",
"GymCityname":"武汉市",
"GymAdname":"江岸区",
"GymShopinfo":"0",
"GymCheckInNum":null
},
{
"GymID":"B001B1C260",
"GymName":"康悦健身文体中心",
"GymType":"体育休闲服务;运动场馆;健身中心",
"GymTypecode":"080111",
"GymAddress":"百步亭花园小区百花路6号现代城二期中百仓储背后200米",
"GymLng":114.31723133978427,
"GymLat":30.648204160714375,
"GymTel":"027-82356389",
"GymPname":"湖北省",
"GymCityname":"武汉市",
"GymAdname":"江岸区",
"GymShopinfo":"0",
"GymCheckInNum":null
},
{
"GymID":"B001B1C29P",
"GymName":"山道健身会所(杨家湾店)",
"GymType":"体育休闲服务;运动场馆;健身中心|生活服务;生活服务场所;生活服务场所",
"GymTypecode":"080111|070000",
"GymAddress":"雄楚大街杨家湾武商量贩5层(近省荣军医院)",
"GymLng":114.37329146560481,
"GymLat":30.50776930596621,
"GymTel":"027-86646842",
"GymPname":"湖北省",
"GymCityname":"武汉市",
"GymAdname":"洪山区",
"GymShopinfo":"0",
"GymCheckInNum":null
},
{
"GymID":"B001B1C35I",
"GymName":"元泉瑜伽(王家湾店)",
"GymType":"体育休闲服务;运动场馆;健身中心",
"GymTypecode":"080111",
"GymAddress":"二桥路19号汉江阳光城",
"GymLng":114.20602477677159,
"GymLat":30.566642428345162,
"GymTel":"027-84656190;13387548930",
"GymPname":"湖北省",
"GymCityname":"武汉市",
"GymAdname":"汉阳区",
"GymShopinfo":"0",
"GymCheckInNum":null
},
{
"GymID":"B001B1C3EK",
"GymName":"武汉市武昌区瑜馨瑜伽健身馆",
"GymType":"体育休闲服务;运动场馆;健身中心",
"GymTypecode":"080111",
"GymAddress":"中南路3号附1号阜华·领秀中南18层1810室",
"GymLng":114.32579594217253,
"GymLat":30.537857164735456,
"GymTel":null,
"GymPname":"湖北省",
"GymCityname":"武汉市",
"GymAdname":"武昌区",
"GymShopinfo":"0",
"GymCheckInNum":null
},
{
"GymID":"B001B1C5ES",
"GymName":"民族街武胜社区全民健身中心",
"GymType":"体育休闲服务;运动场馆;健身中心",
"GymTypecode":"080111",
"GymAddress":"乔家巷12号",
"GymLng":114.28054311379375,
"GymLat":30.573549128889095,
"GymTel":null,
"GymPname":"湖北省",
"GymCityname":"武汉市",
"GymAdname":"江汉区",
"GymShopinfo":"0",
"GymCheckInNum":null
},
{
"GymID":"B001B1C652",
"GymName":"搏乐综合搏击俱乐部分馆",
"GymType":"体育休闲服务;运动场馆;健身中心",
"GymTypecode":"080111",
"GymAddress":"民主路157百汇商城2层",
"GymLng":114.2956720152654,
"GymLat":30.548427848656008,
"GymTel":"027-88856786",
"GymPname":"湖北省",
"GymCityname":"武汉市",
"GymAdname":"武昌区",
"GymShopinfo":"0",
"GymCheckInNum":null
},
{
"GymID":"B001B1C68V",
"GymName":"天竺仕瑜伽(汉口店)",
"GymType":"体育休闲服务;运动场馆;健身中心",
"GymTypecode":"080111",
"GymAddress":"京汉大道742号金色家园商业街",
"GymLng":114.27566289001182,
"GymLat":30.58401108545794,
"GymTel":"027-85514583",
"GymPname":"湖北省",
"GymCityname":"武汉市",
"GymAdname":"江汉区",
"GymShopinfo":"0",
"GymCheckInNum":null
},
{
"GymID":"B001B1C8OK",
"GymName":"凯撒国际健身会所(中北路店)",
"GymType":"体育休闲服务;运动场馆;健身中心",
"GymTypecode":"080111",
"GymAddress":"中北路129A座5层",
"GymLng":114.33651992806439,
"GymLat":30.557819139068055,
"GymTel":"027-59711012",
"GymPname":"湖北省",
"GymCityname":"武汉市",
"GymAdname":"武昌区",
"GymShopinfo":"0",
"GymCheckInNum":null
},
{
"GymID":"B001B1C97I",
"GymName":"湖大健身俱乐部",
"GymType":"体育休闲服务;运动场馆;健身中心",
"GymTypecode":"080111",
"GymAddress":"友谊大道368号湖北大学3号体育馆",
"GymLng":114.33054930423282,
"GymLat":30.582552327949795,
"GymTel":"027-88666456",
"GymPname":"湖北省",
"GymCityname":"武汉市",
"GymAdname":"武昌区",
"GymShopinfo":"0",
"GymCheckInNum":null
},
{
"GymID":"B001B1C9BC",
"GymName":"山道健身会所(湖大店)",
"GymType":"体育休闲服务;运动场馆;健身中心",
"GymTypecode":"080111",
"GymAddress":"友谊大道湖大三期学生公寓2层",
"GymLng":114.32186815680127,
"GymLat":30.574925743975108,
"GymTel":"027-86741150",
"GymPname":"湖北省",
"GymCityname":"武汉市",
"GymAdname":"武昌区",
"GymShopinfo":"0",
"GymCheckInNum":null
},
{
"GymID":"B001B1C9H7",
"GymName":"谦谦健身中心(南国首义汇北区)",
"GymType":"体育休闲服务;运动场馆;健身中心",
"GymTypecode":"080111",
"GymAddress":"张之洞路151号南国首义汇北区B1层B1-1",
"GymLng":114.29887462949827,
"GymLat":30.538583811437277,
"GymTel":"027-88991258",
"GymPname":"湖北省",
"GymCityname":"武汉市",
"GymAdname":"武昌区",
"GymShopinfo":"0",
"GymCheckInNum":null
},
{
"GymID":"B001B1C9TY",
"GymName":"泰和瑜伽",
"GymType":"体育休闲服务;运动场馆;健身中心",
"GymTypecode":"080111",
"GymAddress":"东湖路181号4层",
"GymLng":114.35733427024392,
"GymLat":30.567375940454824,
"GymTel":null,
"GymPname":"湖北省",
"GymCityname":"武汉市",
"GymAdname":"武昌区",
"GymShopinfo":"0",
"GymCheckInNum":null
},
{
"GymID":"B001B1CBP8",
"GymName":"刘勇国际健身会(景虹花园店)",
"GymType":"体育休闲服务;运动场馆;健身中心",
"GymTypecode":"080111",
"GymAddress":"南湖花园城瑞安街特1号景虹花园内(广州军区南湖妇产中心旁)",
"GymLng":114.31609264521754,
"GymLat":30.51620466982062,
"GymTel":"027-88019868",
"GymPname":"湖北省",
"GymCityname":"武汉市",
"GymAdname":"武昌区",
"GymShopinfo":"0",
"GymCheckInNum":null
},
{
"GymID":"B001B1CFJA",
"GymName":"烽火科技职工健身中心",
"GymType":"体育休闲服务;运动场馆;健身中心",
"GymTypecode":"080111",
"GymAddress":"珞瑜路吴家湾邮电科学研究院内",
"GymLng":114.39038444978335,
"GymLat":30.52193626513371,
"GymTel":"027-87692001",
"GymPname":"湖北省",
"GymCityname":"武汉市",
"GymAdname":"洪山区",
"GymShopinfo":"0",
"GymCheckInNum":null
},
{
"GymID":"B001B1COUM",
"GymName":"爱维斯国际健身",
"GymType":"体育休闲服务;运动场馆;健身中心",
"GymTypecode":"080111",
"GymAddress":"杨桥湖大道15号拓创大厦",
"GymLng":114.42376335638907,
"GymLat":30.421294239116865,
"GymTel":"13407138564",
"GymPname":"湖北省",
"GymCityname":"武汉市",
"GymAdname":"江夏区",
"GymShopinfo":"0",
"GymCheckInNum":null
},
{
"GymID":"B001B1CPCY",
"GymName":"静禅瑜伽",
"GymType":"体育休闲服务;运动场馆;健身中心",
"GymTypecode":"080111",
"GymAddress":"二七路东立国际17栋1单元201室",
"GymLng":114.30865164836383,
"GymLat":30.628314764201633,
"GymTel":"027-82284417;13667189286",
"GymPname":"湖北省",
"GymCityname":"武汉市",
"GymAdname":"江岸区",
"GymShopinfo":"0",
"GymCheckInNum":null
},
{
"GymID":"B001B1CPJP",
"GymName":"仟韵瑜伽生活馆",
"GymType":"体育休闲服务;运动场馆;健身中心",
"GymTypecode":"080111",
"GymAddress":"层光谷大道78号当代国际花园6号楼C座1单元4层2号",
"GymLng":114.41314902210901,
"GymLat":30.464426776282302,
"GymTel":"027-81613288",
"GymPname":"湖北省",
"GymCityname":"武汉市",
"GymAdname":"江夏区",
"GymShopinfo":"0",
"GymCheckInNum":null
},
{
"GymID":"B001B1CSH5",
"GymName":"伽斯特健身中心",
"GymType":"体育休闲服务;运动场馆;健身中心",
"GymTypecode":"080111",
"GymAddress":"珞瑜路佳园路慧谷时空大厦四楼",
"GymLng":114.42688686317696,
"GymLat":30.507016102230352,
"GymTel":"027-59708911",
"GymPname":"湖北省",
"GymCityname":"武汉市",
"GymAdname":"洪山区",
"GymShopinfo":"0",
"GymCheckInNum":null
},
{
"GymID":"B001B1CSHK",
"GymName":"赛倍儿瑜伽会所(世界城店)",
"GymType":"体育休闲服务;运动场馆;健身中心",
"GymTypecode":"080111",
"GymAddress":"光谷步行街大洋百货5层",
"GymLng":114.39595041130339,
"GymLat":30.507195918774904,
"GymTel":"027-87419196;027-87290438",
"GymPname":"湖北省",
"GymCityname":"武汉市",
"GymAdname":"洪山区",
"GymShopinfo":"0",
"GymCheckInNum":null
},
{
"GymID":"B001B1CUBS",
"GymName":"伽菲瑜伽(光谷店)",
"GymType":"体育休闲服务;运动场馆;健身中心",
"GymTypecode":"080111",
"GymAddress":"光谷步行街加州阳光4栋2505室(西班牙风情街和世界城广场)",
"GymLng":114.3994462086362,
"GymLat":30.507523953977778,
"GymTel":"027-87570925;18071085938",
"GymPname":"湖北省",
"GymCityname":"武汉市",
"GymAdname":"洪山区",
"GymShopinfo":"0",
"GymCheckInNum":null
},
{
"GymID":"B001B1DMIJ",
"GymName":"空灵瑜伽会所",
"GymType":"体育休闲服务;运动场馆;健身中心",
"GymTypecode":"080111",
"GymAddress":"中北路姚家岭114号景天楼2单元305室",
"GymLng":114.3332964266465,
"GymLat":30.553317697324385,
"GymTel":"027-87840536",
"GymPname":"湖北省",
"GymCityname":"武汉市",
"GymAdname":"武昌区",
"GymShopinfo":"0",
"GymCheckInNum":null
},
{
"GymID":"B001B1DMPU",
"GymName":"天竺仕瑜伽馆(世纪大厦店)",
"GymType":"体育休闲服务;运动场馆;健身中心",
"GymTypecode":"080111",
"GymAddress":"循礼门轻轨站出口世纪大厦6楼B",
"GymLng":114.28132724036067,
"GymLat":30.587510921908144,
"GymTel":"027-88859985;13971508881",
"GymPname":"湖北省",
"GymCityname":"武汉市",
"GymAdname":"江岸区",
"GymShopinfo":"0",
"GymCheckInNum":null
},
{
"GymID":"B001B1DNE3",
"GymName":"利翔搏击会馆",
"GymType":"体育休闲服务;运动场馆;健身中心",
"GymTypecode":"080111",
"GymAddress":"珞喻路20号阜华大厦A座1502号(珞狮路口)",
"GymLng":114.34817723723515,
"GymLat":30.528398518032343,
"GymTel":"027-50769232",
"GymPname":"湖北省",
"GymCityname":"武汉市",
"GymAdname":"洪山区",
"GymShopinfo":"0",
"GymCheckInNum":null
},
{
"GymID":"B001B1DOOU",
"GymName":"静园瑜伽(珞狮南路辅路)",
"GymType":"体育休闲服务;运动场馆;健身中心",
"GymTypecode":"080111",
"GymAddress":"珞狮南路519号明泽丽湾1-C-1801室",
"GymLng":114.33446782397684,
"GymLat":30.492781662092185,
"GymTel":null,
"GymPname":"湖北省",
"GymCityname":"武汉市",
"GymAdname":"洪山区",
"GymShopinfo":"0",
"GymCheckInNum":null
},
{
"GymID":"B001B1DOQJ",
"GymName":"元泉瑜伽(东立分店)",
"GymType":"体育休闲服务;运动场馆;健身中心",
"GymTypecode":"080111",
"GymAddress":"二七路东立国际12栋二单元302室",
"GymLng":114.30865167836663,
"GymLat":30.627968908527357,
"GymTel":"027-51135986;18694041844",
"GymPname":"湖北省",
"GymCityname":"武汉市",
"GymAdname":"江岸区",
"GymShopinfo":"0",
"GymCheckInNum":null
},
{
"GymID":"B001B1DQ30",
"GymName":"三摩地瑜伽(珞瑜路店)",
"GymType":"体育休闲服务;运动场馆;健身中心",
"GymTypecode":"080111",
"GymAddress":"珞瑜路鹏程国际A座8楼6号",
"GymLng":114.34875536196293,
"GymLat":30.529373247002106,
"GymTel":null,
"GymPname":"湖北省",
"GymCityname":"武汉市",
"GymAdname":"洪山区",
"GymShopinfo":"0",
"GymCheckInNum":null
},
{
"GymID":"B001B1DQ75",
"GymName":"心韵瑜伽",
"GymType":"体育休闲服务;运动场馆;健身中心",
"GymTypecode":"080111",
"GymAddress":"江汉路181号俊华大厦A座29-30楼-5(近江汉四路)",
"GymLng":114.28284606535021,
"GymLat":30.58542871696262,
"GymTel":"027-82759187;13908633376",
"GymPname":"湖北省",
"GymCityname":"武汉市",
"GymAdname":"江汉区",
"GymShopinfo":"0",
"GymCheckInNum":null
},
{
"GymID":"B001B1DRFS",
"GymName":"梵生瑜伽",
"GymType":"体育休闲服务;运动场馆;健身中心",
"GymTypecode":"080111",
"GymAddress":"中南路三号埠华领袖中南14楼12B06室",
"GymLng":114.32597367180398,
"GymLat":30.537619903130015,
"GymTel":null,
"GymPname":"湖北省",
"GymCityname":"武汉市",
"GymAdname":"武昌区",
"GymShopinfo":"0",
"GymCheckInNum":null
},
{
"GymID":"B001B1DT2J",
"GymName":"火凤凰健身女子会所",
"GymType":"体育休闲服务;运动场馆;健身中心",
"GymTypecode":"080111",
"GymAddress":"鄱阳街17号汉商4层",
"GymLng":114.29006584944453,
"GymLat":30.58281638916122,
"GymTel":null,
"GymPname":"湖北省",
"GymCityname":"武汉市",
"GymAdname":"江岸区",
"GymShopinfo":"0",
"GymCheckInNum":null
},
{
"GymID":"B001B1DT6Q",
"GymName":"菲艺舞蹈健身馆",
"GymType":"体育休闲服务;运动场馆;健身中心",
"GymTypecode":"080111",
"GymAddress":"王家湾大洋百货顶琇广场A708室",
"GymLng":114.20382914908042,
"GymLat":30.56325270559428,
"GymTel":null,
"GymPname":"湖北省",
"GymCityname":"武汉市",
"GymAdname":"汉阳区",
"GymShopinfo":"0",
"GymCheckInNum":null
},
{
"GymID":"B001B1E7D6",
"GymName":"夏小寒东方舞工作室",
"GymType":"体育休闲服务;运动场馆;健身中心",
"GymTypecode":"080111",
"GymAddress":"珞喻路20号阜华大厦C座1103室(近群光广场)",
"GymLng":114.34875546181757,
"GymLat":30.528226616234285,
"GymTel":"18672790677",
"GymPname":"湖北省",
"GymCityname":"武汉市",
"GymAdname":"洪山区",
"GymShopinfo":"0",
"GymCheckInNum":null
},
{
"GymID":"B001B1EAJ1",
"GymName":"群英娱乐自助会所",
"GymType":"体育休闲服务;运动场馆;健身中心",
"GymTypecode":"080111",
"GymAddress":"关西小区内",
"GymLng":114.38196245437376,
"GymLat":30.501824223032024,
"GymTel":null,
"GymPname":"湖北省",
"GymCityname":"武汉市",
"GymAdname":"洪山区",
"GymShopinfo":"0",
"GymCheckInNum":null
},
{
"GymID":"B001B1EEVW",
"GymName":"元泉瑜伽(徐东店)",
"GymType":"体育休闲服务;运动场馆;健身中心",
"GymTypecode":"080111",
"GymAddress":"徐东欧洲花园9号楼1单元802室902室(销品茂斜对面)",
"GymLng":114.34313791023149,
"GymLat":30.59149286552423,
"GymTel":"027-88613769;15871706485",
"GymPname":"湖北省",
"GymCityname":"武汉市",
"GymAdname":"洪山区",
"GymShopinfo":"0",
"GymCheckInNum":null
},
{
"GymID":"B001B1EFST",
"GymName":"梵璐瑜伽",
"GymType":"体育休闲服务;运动场馆;健身中心",
"GymTypecode":"080111",
"GymAddress":"东湖西路水果湖中北路姚家岭街景天楼三楼(海山金谷)",
"GymLng":114.3332964266465,
"GymLat":30.553317697324385,
"GymTel":"027-87840536",
"GymPname":"湖北省",
"GymCityname":"武汉市",
"GymAdname":"武昌区",
"GymShopinfo":"0",
"GymCheckInNum":null
},
{
"GymID":"B001B1EG22",
"GymName":"耀舞静馨瑜伽会馆(光谷广场店)",
"GymType":"体育休闲服务;运动场馆;健身中心",
"GymTypecode":"080111",
"GymAddress":"国光大厦B座2003室(鲁巷转盘往鲁磨路方向300米)",
"GymLng":114.39418706102586,
"GymLat":30.514724763215305,
"GymTel":null,
"GymPname":"湖北省",
"GymCityname":"武汉市",
"GymAdname":"洪山区",
"GymShopinfo":"0",
"GymCheckInNum":null
},
{
"GymID":"B001B1EHVL",
"GymName":"跃动健身(武大园一路)",
"GymType":"体育休闲服务;运动场馆;健身中心",
"GymTypecode":"080111",
"GymAddress":"武大园东路1号",
"GymLng":114.40547084095063,
"GymLat":30.460977382773915,
"GymTel":"027-81296399",
"GymPname":"湖北省",
"GymCityname":"武汉市",
"GymAdname":"洪山区",
"GymShopinfo":"0",
"GymCheckInNum":null
},
{
"GymID":"B001B1EJI7",
"GymName":"心灵瑜伽(龙阳大道)",
"GymType":"体育休闲服务;运动场馆;健身中心",
"GymTypecode":"080111",
"GymAddress":"王家湾凯悦大厦B座5楼(新工贸家电楼上)",
"GymLng":114.20202326114261,
"GymLat":30.560118308141625,
"GymTel":null,
"GymPname":"湖北省",
"GymCityname":"武汉市",
"GymAdname":"汉阳区",
"GymShopinfo":"0",
"GymCheckInNum":null
},
{
"GymID":"B001B1EQJ9",
"GymName":"古瑜伽(洪福添美广场店)",
"GymType":"体育休闲服务;运动场馆;健身中心",
"GymTypecode":"080111",
"GymAddress":"民院路洪福添美广场7栋2单元601室(近荷兰风情园)",
"GymLng":114.39358018094369,
"GymLat":30.49956839607175,
"GymTel":"027-87611828;18607171472",
"GymPname":"湖北省",
"GymCityname":"武汉市",
"GymAdname":"洪山区",
"GymShopinfo":"0",
"GymCheckInNum":null
},
{
"GymID":"B001B1EQOA",
"GymName":"隐瑜伽会馆(万达广场会馆)",
"GymType":"体育休闲服务;运动场馆;健身中心",
"GymTypecode":"080111",
"GymAddress":"菱角湖万达百货5层(菱角湖公园地铁2号线范湖站)",
"GymLng":114.26391759903869,
"GymLat":30.612319994225814,
"GymTel":"027-85388255;027-85381677",
"GymPname":"湖北省",
"GymCityname":"武汉市",
"GymAdname":"江汉区",
"GymShopinfo":"0",
"GymCheckInNum":null
},
{
"GymID":"B001B1EQYF",
"GymName":"脉搏嘉城健身",
"GymType":"体育休闲服务;运动场馆;健身中心",
"GymTypecode":"080111",
"GymAddress":"香港路117号华美国际1103室(市妇幼斜对面)",
"GymLng":114.28287547815174,
"GymLat":30.603497702535474,
"GymTel":"18627031081",
"GymPname":"湖北省",
"GymCityname":"武汉市",
"GymAdname":"江岸区",
"GymShopinfo":"0",
"GymCheckInNum":null
},
{
"GymID":"B001B1ER2J",
"GymName":"武昌区林熙古梵瑜伽馆",
"GymType":"体育休闲服务;运动场馆;健身中心",
"GymTypecode":"080111",
"GymAddress":"徐东大街东湖春树里小区1栋3单元1401室",
"GymLng":114.35836320399959,
"GymLat":30.57775367336861,
"GymTel":"027-88027828;15927535405",
"GymPname":"湖北省",
"GymCityname":"武汉市",
"GymAdname":"武昌区",
"GymShopinfo":"0",
"GymCheckInNum":null
},
{
"GymID":"B001B1ERDR",
"GymName":"美玲瑜伽(福星城市花园店)",
"GymType":"体育休闲服务;运动场馆;健身中心",
"GymTypecode":"080111",
"GymAddress":"新华路186号(或江汉北路)福星城市花园星际阁1栋3单元6楼",
"GymLng":114.27008439041028,
"GymLat":30.591262099659378,
"GymTel":"027-82269201",
"GymPname":"湖北省",
"GymCityname":"武汉市",
"GymAdname":"江汉区",
"GymShopinfo":"0",
"GymCheckInNum":null
},
{
"GymID":"B001B1ERQY",
"GymName":"境合香瑜伽",
"GymType":"体育休闲服务;运动场馆;健身中心",
"GymTypecode":"080111",
"GymAddress":"张之洞路千家街欣隆紫阳苑B栋1201室",
"GymLng":114.30711304944569,
"GymLat":30.53537432134075,
"GymTel":"13971460247",
"GymPname":"湖北省",
"GymCityname":"武汉市",
"GymAdname":"武昌区",
"GymShopinfo":"0",
"GymCheckInNum":null
},
{
"GymID":"B001B1ERRT",
"GymName":"迈索尔瑜伽会馆(光谷店)",
"GymType":"体育休闲服务;运动场馆;健身中心",
"GymTypecode":"080111",
"GymAddress":"光谷广场西班牙风情街D栋4单元5层",
"GymLng":114.3985077692454,
"GymLat":30.50626124428227,
"GymTel":"027-86867800;18202756833",
"GymPname":"湖北省",
"GymCityname":"武汉市",
"GymAdname":"洪山区",
"GymShopinfo":"0",
"GymCheckInNum":null
},
{
"GymID":"B001B1ERVS",
"GymName":"中环健身俱乐部",
"GymType":"体育休闲服务;运动场馆;健身中心",
"GymTypecode":"080111",
"GymAddress":"青年路153号新一佳超市杨园店4层",
"GymLng":114.25795685832432,
"GymLat":30.59130597271703,
"GymTel":null,
"GymPname":"湖北省",
"GymCityname":"武汉市",
"GymAdname":"江汉区",
"GymShopinfo":"0",
"GymCheckInNum":null
},
{
"GymID":"B001B1ESAI",
"GymName":"空中健身(徐东铂金店)",
"GymType":"体育休闲服务;运动场馆;健身中心",
"GymTypecode":"080111",
"GymAddress":"华天大酒店5-6层",
"GymLng":114.34120677742696,
"GymLat":30.591580244096154,
"GymTel":"027-88223083",
"GymPname":"湖北省",
"GymCityname":"武汉市",
"GymAdname":"洪山区",
"GymShopinfo":"0",
"GymCheckInNum":null
},
{
"GymID":"B001B1ESUS",
"GymName":"致·1986映莲瑜伽会所",
"GymType":"体育休闲服务;运动场馆;健身中心",
"GymTypecode":"080111",
"GymAddress":"马鹦路江腾苑B区3栋一单元3002室(汉阳法院旁)",
"GymLng":114.2472684546489,
"GymLat":30.536963742632164,
"GymTel":"18696150430",
"GymPname":"湖北省",
"GymCityname":"武汉市",
"GymAdname":"汉阳区",
"GymShopinfo":"0",
"GymCheckInNum":null
},
{
"GymID":"B001B1ESXE",
"GymName":"惠雅瑜伽",
"GymType":"体育休闲服务;运动场馆;健身中心",
"GymTypecode":"080111",
"GymAddress":"解放大道1045号宝丰时代23层2302室(近蓝天宾馆)",
"GymLng":114.24790598236052,
"GymLat":30.581141126346658,
"GymTel":"027-83621146;027-83631149",
"GymPname":"湖北省",
"GymCityname":"武汉市",
"GymAdname":"硚口区",
"GymShopinfo":"0",
"GymCheckInNum":null
},
{
"GymID":"B001B1FK03",
"GymName":"聪瑾瑜伽",
"GymType":"体育休闲服务;运动场馆;健身中心",
"GymTypecode":"080111",
"GymAddress":"光谷华中科技大学东区16栋29门102室(原城建学院)",
"GymLng":114.4258375427647,
"GymLat":30.510148780300707,
"GymTel":"18086092945;13871414160",
"GymPname":"湖北省",
"GymCityname":"武汉市",
"GymAdname":"洪山区",
"GymShopinfo":"0",
"GymCheckInNum":null
},
{
"GymID":"B001B1FK17",
"GymName":"简生活高温瑜伽会所(香港路店)",
"GymType":"体育休闲服务;运动场馆;健身中心",
"GymTypecode":"080111",
"GymAddress":"香港路117号华美国际1809室(近儿童医院)",
"GymLng":114.2828345057328,
"GymLat":30.603613711394996,
"GymTel":"027-85896388;13659826328",
"GymPname":"湖北省",
"GymCityname":"武汉市",
"GymAdname":"江岸区",
"GymShopinfo":"0",
"GymCheckInNum":null
},
{
"GymID":"B001B1FK18",
"GymName":"映莲瑜伽(大智路店)",
"GymType":"体育休闲服务;运动场馆;健身中心",
"GymTypecode":"080111",
"GymAddress":"京汉大道1058号大智嘉园C栋1单元2901室",
"GymLng":114.28747187291617,
"GymLat":30.59245758665733,
"GymTel":"027-82602292",
"GymPname":"湖北省",
"GymCityname":"武汉市",
"GymAdname":"江岸区",
"GymShopinfo":"0",
"GymCheckInNum":null
},
{
"GymID":"B001B1FNRG",
"GymName":"倍畅瑜伽",
"GymType":"体育休闲服务;运动场馆;健身中心",
"GymTypecode":"080111",
"GymAddress":"珞瑜东路与佳园路交汇口光谷国际A座1302",
"GymLng":114.42446621039842,
"GymLat":30.50709997322946,
"GymTel":"027-87779773;18064007187",
"GymPname":"湖北省",
"GymCityname":"武汉市",
"GymAdname":"洪山区",
"GymShopinfo":"0",
"GymCheckInNum":null
},
{
"GymID":"B001B1FNX5",
"GymName":"白云渡瑜伽健康中心(黄浦店)",
"GymType":"体育休闲服务;运动场馆;健身中心",
"GymTypecode":"080111",
"GymAddress":"黄浦大街312号亚安花园1栋4单元402室(近武汉科技馆)",
"GymLng":114.29407565341606,
"GymLat":30.622228605719027,
"GymTel":"027-82911182",
"GymPname":"湖北省",
"GymCityname":"武汉市",
"GymAdname":"江岸区",
"GymShopinfo":"0",
"GymCheckInNum":null
},
{
"GymID":"B001B1FO33",
"GymName":"思迈威私人健身会所(粤海分店)",
"GymType":"体育休闲服务;运动场馆;健身中心",
"GymTypecode":"080111",
"GymAddress":"东湖路181号楚天粤海国际大酒店内(湖北省博物馆对面)",
"GymLng":114.3587946525515,
"GymLat":30.567178923373074,
"GymTel":"027-86628863",
"GymPname":"湖北省",
"GymCityname":"武汉市",
"GymAdname":"武昌区",
"GymShopinfo":"0",
"GymCheckInNum":null
},
{
"GymID":"B001B1FOO3",
"GymName":"美格菲健身中心(创世纪广场店)",
"GymType":"体育休闲服务;运动场馆;健身中心",
"GymTypecode":"080111",
"GymAddress":"解放大道549号创世纪广场A座30楼3020室(近武汉广场)",
"GymLng":114.26264630771155,
"GymLat":30.583463125343908,
"GymTel":null,
"GymPname":"湖北省",
"GymCityname":"武汉市",
"GymAdname":"江汉区",
"GymShopinfo":"0",
"GymCheckInNum":null
},
{
"GymID":"B001B1FP4V",
"GymName":"正心瑜伽馆(水果湖店)",
"GymType":"体育休闲服务;运动场馆;健身中心",
"GymTypecode":"080111",
"GymAddress":"东湖路10号水果湖广场A座1101室(交通银行楼上)",
"GymLng":114.33901968144717,
"GymLat":30.55055409481663,
"GymTel":"027-87833993",
"GymPname":"湖北省",
"GymCityname":"武汉市",
"GymAdname":"武昌区",
"GymShopinfo":"0",
"GymCheckInNum":null
},
{
"GymID":"B001B1FPQ1",
"GymName":"贝栎舞蹈瑜伽会所(青山店)",
"GymType":"体育休闲服务;运动场馆;健身中心",
"GymTypecode":"080111",
"GymAddress":"友谊大道948号玲珑汇1-1805室(钢洲花园车站大洲中百旁)",
"GymLng":114.37536259913848,
"GymLat":30.618995827964817,
"GymTel":"18062050525",
"GymPname":"湖北省",
"GymCityname":"武汉市",
"GymAdname":"青山区",
"GymShopinfo":"0",
"GymCheckInNum":null
},
{
"GymID":"B001B1FPY3",
"GymName":"境合瑜伽(中南店)",
"GymType":"体育休闲服务;运动场馆;健身中心",
"GymTypecode":"080111",
"GymAddress":"武珞路442号中南国际城D座2单元1002室",
"GymLng":114.32516611003312,
"GymLat":30.536287889096865,
"GymTel":"027-87130162;15377667669",
"GymPname":"湖北省",
"GymCityname":"武汉市",
"GymAdname":"武昌区",
"GymShopinfo":"0",
"GymCheckInNum":null
},
{
"GymID":"B001B1FQ2U",
"GymName":"SASA肚皮舞瑜伽俱乐部",
"GymType":"体育休闲服务;运动场馆;健身中心",
"GymTypecode":"080111",
"GymAddress":"街道口新世界鹏程国际A座2906室",
"GymLng":114.34884125434418,
"GymLat":30.52926813932138,
"GymTel":"027-87863080",
"GymPname":"湖北省",
"GymCityname":"武汉市",
"GymAdname":"洪山区",
"GymShopinfo":"0",
"GymCheckInNum":null
},
{
"GymID":"B001B1FQUT",
"GymName":"灵动舞吧",
"GymType":"体育休闲服务;运动场馆;健身中心",
"GymTypecode":"080111",
"GymAddress":"雄楚大街杨家湾站广圆超市二楼",
"GymLng":114.37453980284162,
"GymLat":30.507328279082426,
"GymTel":null,
"GymPname":"湖北省",
"GymCityname":"武汉市",
"GymAdname":"洪山区",
"GymShopinfo":"0",
"GymCheckInNum":null
},
{
"GymID":"B001B1GFBJ",
"GymName":"武汉市汉阳区予悦瑜伽馆",
"GymType":"体育休闲服务;运动场馆;健身中心",
"GymTypecode":"080111",
"GymAddress":"汉阳大道644号金龙花园11栋2单元302室(近中国银行、天然气公司楼上)",
"GymLng":114.22172552342452,
"GymLat":30.56151111298119,
"GymTel":"027-84773808;13871054593",
"GymPname":"湖北省",
"GymCityname":"武汉市",
"GymAdname":"汉阳区",
"GymShopinfo":"0",
"GymCheckInNum":null
},
{
"GymID":"B001B1GHY2",
"GymName":"静觉瑜伽会所",
"GymType":"体育休闲服务;运动场馆;健身中心",
"GymTypecode":"080111",
"GymAddress":"简易路汉西一路轻轨站旁博学仕府2栋1单元4-404室(轻轨汉西一路站A出口旁)",
"GymLng":114.2129283765515,
"GymLat":30.587846944339468,
"GymTel":"027-51771258;13971682224",
"GymPname":"湖北省",
"GymCityname":"武汉市",
"GymAdname":"硚口区",
"GymShopinfo":"0",
"GymCheckInNum":null
},
{
"GymID":"B001B1GI4G",
"GymName":"雪韵瑜伽",
"GymType":"体育休闲服务;运动场馆;健身中心",
"GymTypecode":"080111",
"GymAddress":"江汉路179号俊华大厦B座12-09室(近江汉四路正步行街上)",
"GymLng":114.28239643906741,
"GymLat":30.58583815902593,
"GymTel":"15327136893",
"GymPname":"湖北省",
"GymCityname":"武汉市",
"GymAdname":"江汉区",
"GymShopinfo":"0",
"GymCheckInNum":null
},
{
"GymID":"B001B1GRGA",
"GymName":"赛倍儿瑜伽会所(洪山广场店)",
"GymType":"体育休闲服务;运动场馆;健身中心",
"GymTypecode":"080111",
"GymAddress":"中北路特1号洪山广场家乐福3层",
"GymLng":114.3324580155014,
"GymLat":30.550503241506984,
"GymTel":"027-87273916",
"GymPname":"湖北省",
"GymCityname":"武汉市",
"GymAdname":"武昌区",
"GymShopinfo":"0",
"GymCheckInNum":null
},
{
"GymID":"B001B1GRV1",
"GymName":"倍瑞新健身会所",
"GymType":"体育休闲服务;运动场馆;健身中心",
"GymTypecode":"080111",
"GymAddress":"武珞路456号中建三局西裙楼4层(丁字桥)",
"GymLng":114.32491753026868,
"GymLat":30.5361384145438,
"GymTel":"027-59804020",
"GymPname":"湖北省",
"GymCityname":"武汉市",
"GymAdname":"武昌区",
"GymShopinfo":"0",
"GymCheckInNum":null
},
{
"GymID":"B001B1H0KL",
"GymName":"沛欣瑜伽(武昌府店)",
"GymType":"体育休闲服务;运动场馆;健身中心",
"GymTypecode":"080111",
"GymAddress":"府B区12栋401室",
"GymLng":114.32324999644969,
"GymLat":30.50463349552104,
"GymTel":"18971085641",
"GymPname":"湖北省",
"GymCityname":"武汉市",
"GymAdname":"洪山区",
"GymShopinfo":"0",
"GymCheckInNum":null
},
{
"GymID":"B001B1H0TN",
"GymName":"尚体国际健身会所",
"GymType":"体育休闲服务;运动场馆;健身中心",
"GymTypecode":"080111",
"GymAddress":"新华下路11号文化体育中心4层",
"GymLng":114.26349140931386,
"GymLat":30.603872671432214,
"GymTel":"027-58903601;027-58903600",
"GymPname":"湖北省",
"GymCityname":"武汉市",
"GymAdname":"江汉区",
"GymShopinfo":"0",
"GymCheckInNum":null
},
{
"GymID":"B001B1H0VG",
"GymName":"瑜伽之路",
"GymType":"体育休闲服务;运动场馆;健身中心",
"GymTypecode":"080111",
"GymAddress":"香港路华氏百货儒商花园F座2504室(建设大道汉口银行与香港路交汇处)",
"GymLng":114.27790815137067,
"GymLat":30.608946815331528,
"GymTel":"13387505000",
"GymPname":"湖北省",
"GymCityname":"武汉市",
"GymAdname":"江汉区",
"GymShopinfo":"0",
"GymCheckInNum":null
},
{
"GymID":"B001B1H162",
"GymName":"东之秀瑜伽馆",
"GymType":"体育休闲服务;运动场馆;健身中心",
"GymTypecode":"080111",
"GymAddress":"徐东二路2号水岸星城G11栋2单元17楼3室",
"GymLng":114.34014147581888,
"GymLat":30.579124852259543,
"GymTel":"027-86700678",
"GymPname":"湖北省",
"GymCityname":"武汉市",
"GymAdname":"武昌区",
"GymShopinfo":"0",
"GymCheckInNum":null
},
{
"GymID":"B001B1H3NB",
"GymName":"瑞斯健身工作室(积玉桥店)",
"GymType":"体育休闲服务;运动场馆;健身中心",
"GymTypecode":"080111",
"GymAddress":"积玉桥街办事处和平大道万达SOHO写字楼13栋",
"GymLng":114.30435650663587,
"GymLat":30.56596078822613,
"GymTel":"027-88870898",
"GymPname":"湖北省",
"GymCityname":"武汉市",
"GymAdname":"武昌区",
"GymShopinfo":"0",
"GymCheckInNum":null
},
{
"GymID":"B001B1IIXJ",
"GymName":"和合瑜伽生活馆",
"GymType":"体育休闲服务;运动场馆;健身中心",
"GymTypecode":"080111",
"GymAddress":"沿江大道兰陵路口时代广场时代豪苑3座27楼2704室(沿江大道马可孛罗大酒店旁)",
"GymLng":114.2952092120843,
"GymLat":30.587709438225364,
"GymTel":"027-82817907;13027116412",
"GymPname":"湖北省",
"GymCityname":"武汉市",
"GymAdname":"江岸区",
"GymShopinfo":"0",
"GymCheckInNum":null
},
{
"GymID":"B0FFF09JZA",
"GymName":"绿瑟健身会",
"GymType":"体育休闲服务;运动场馆;健身中心",
"GymTypecode":"080111",
"GymAddress":"经济技术开发区东风大道68号金色港湾会所(五期售楼部后)",
"GymLng":114.1721834967933,
"GymLat":30.51728506177708,
"GymTel":"027-84232388",
"GymPname":"湖北省",
"GymCityname":"武汉市",
"GymAdname":"蔡甸区",
"GymShopinfo":"0",
"GymCheckInNum":null
},
{
"GymID":"B0FFF0A8QF",
"GymName":"新悦瑜伽",
"GymType":"体育休闲服务;运动场馆;健身中心",
"GymTypecode":"080111",
"GymAddress":"新华西路100号美林公馆8号楼1单元1402室(新华路万达中百超市对面)",
"GymLng":114.25931616296918,
"GymLat":30.61135137083276,
"GymTel":"027-85858097",
"GymPname":"湖北省",
"GymCityname":"武汉市",
"GymAdname":"江汉区",
"GymShopinfo":"0",
"GymCheckInNum":null
},
{
"GymID":"B0FFF0DMBF",
"GymName":"莲台瑜伽苑",
"GymType":"体育休闲服务;运动场馆;健身中心",
"GymTypecode":"080111",
"GymAddress":"和平大道积玉桥金地国际花园HR5栋1单元801室(近地铁2号线积玉桥站C出口尚隆路)",
"GymLng":114.30631872077105,
"GymLat":30.564528766518333,
"GymTel":"027-88660553",
"GymPname":"湖北省",
"GymCityname":"武汉市",
"GymAdname":"武昌区",
"GymShopinfo":"0",
"GymCheckInNum":null
},
{
"GymID":"B0FFF0EHXY",
"GymName":"若水瑜伽馆(汉阳大道店)",
"GymType":"体育休闲服务;运动场馆;健身中心",
"GymTypecode":"080111",
"GymAddress":"汉阳大道七里庙香苑4-1-301号",
"GymLng":114.22442291635576,
"GymLat":30.559945759574774,
"GymTel":"13986075731;18671370861",
"GymPname":"湖北省",
"GymCityname":"武汉市",
"GymAdname":"汉阳区",
"GymShopinfo":"0",
"GymCheckInNum":null
},
{
"GymID":"B0FFF0EORA",
"GymName":"慧丽瑜伽",
"GymType":"体育休闲服务;运动场馆;健身中心",
"GymTypecode":"080111",
"GymAddress":"古田4路199号天泽一方5栋503室(长丰大道",
"GymLng":null,
"GymLat":null,
"GymTel":"114.21209695181554",
"GymPname":"30.60837902225414",
"GymCityname":"027-83887173;13971397158",
"GymAdname":"湖北省",
"GymShopinfo":"武汉市",
"GymCheckInNum":null
},
{
"GymID":"B0FFF0ETAO",
"GymName":"思迈威私人健身会所(东湖大厦三店)",
"GymType":"体育休闲服务;运动场馆;健身中心",
"GymTypecode":"080111",
"GymAddress":"姚家岭街231号东湖大厦5层",
"GymLng":114.33071150731895,
"GymLat":30.554232247488933,
"GymTel":"027-88186036",
"GymPname":"湖北省",
"GymCityname":"武汉市",
"GymAdname":"武昌区",
"GymShopinfo":"0",
"GymCheckInNum":null
},
{
"GymID":"B0FFF0EZB8",
"GymName":"阳光健身馆",
"GymType":"体育休闲服务;运动场馆;健身中心",
"GymTypecode":"080111",
"GymAddress":"北城路38号",
"GymLng":114.26463379568891,
"GymLat":30.550171654191924,
"GymTel":null,
"GymPname":"湖北省",
"GymCityname":"武汉市",
"GymAdname":"汉阳区",
"GymShopinfo":"0",
"GymCheckInNum":null
},
{
"GymID":"B0FFF0FLIZ",
"GymName":"薇娜国际舞蹈会所",
"GymType":"体育休闲服务;运动场馆;健身中心",
"GymTypecode":"080111",
"GymAddress":"光谷广场尖东智能花园1栋7楼(近光谷广场地铁2号线C出口)",
"GymLng":114.39320044672753,
"GymLat":30.50662536064835,
"GymTel":"027-87382816",
"GymPname":"湖北省",
"GymCityname":"武汉市",
"GymAdname":"洪山区",
"GymShopinfo":"0",
"GymCheckInNum":null
},
{
"GymID":"B0FFF2AUJN",
"GymName":"瑜伽荟(龙阳大道南国明珠店)",
"GymType":"体育休闲服务;运动场馆;健身中心",
"GymTypecode":"080111",
"GymAddress":"龙阳大道陶家岭南国明珠1期14栋1单元301室",
"GymLng":114.19748688125709,
"GymLat":30.542950565608642,
"GymTel":"027-84668411",
"GymPname":"湖北省",
"GymCityname":"武汉市",
"GymAdname":"汉阳区",
"GymShopinfo":"0",
"GymCheckInNum":null
},
{
"GymID":"B0FFF2AYK4",
"GymName":"碧桂园凤凰酒店康体中心",
"GymType":"体育休闲服务;运动场馆;健身中心",
"GymTypecode":"080111",
"GymAddress":"伟业路碧桂园",
"GymLng":114.08459750091119,
"GymLat":30.354125145210972,
"GymTel":null,
"GymPname":"湖北省",
"GymCityname":"武汉市",
"GymAdname":"汉南区",
"GymShopinfo":"0",
"GymCheckInNum":null
},
{
"GymID":"B0FFF2NAH6",
"GymName":"新大地酒店健身房",
"GymType":"体育休闲服务;运动场馆;健身中心",
"GymTypecode":"080111",
"GymAddress":"武珞路330号新大地酒店3层",
"GymLng":114.31920059580281,
"GymLat":30.53944327828736,
"GymTel":null,
"GymPname":"湖北省",
"GymCityname":"武汉市",
"GymAdname":"武昌区",
"GymShopinfo":"0",
"GymCheckInNum":null
},
{
"GymID":"B0FFF2ST7F",
"GymName":"徐东瑜伽小屋",
"GymType":"体育休闲服务;运动场馆;健身中心",
"GymTypecode":"080111",
"GymAddress":"徐东大街92号中力名居小区3栋2单元202室(近澳华装饰)",
"GymLng":114.3418909827749,
"GymLat":30.588936039326615,
"GymTel":"027-51835270;13971121851",
"GymPname":"湖北省",
"GymCityname":"武汉市",
"GymAdname":"武昌区",
"GymShopinfo":"0",
"GymCheckInNum":null
},
{
"GymID":"B0FFF2T9PZ",
"GymName":"天竺高温瑜伽",
"GymType":"体育休闲服务;运动场馆;健身中心",
"GymTypecode":"080111",
"GymAddress":"江汉四路1号科技王大厦9楼a座",
"GymLng":114.28054814214401,
"GymLat":30.584763957526068,
"GymTel":null,
"GymPname":"湖北省",
"GymCityname":"武汉市",
"GymAdname":"江汉区",
"GymShopinfo":"0",
"GymCheckInNum":null
},
{
"GymID":"B0FFF33VS1",
"GymName":"迈欧健身游泳会所(光谷天地店)",
"GymType":"体育休闲服务;运动场馆;健身中心",
"GymTypecode":"080111",
"GymAddress":"关山大道关南园路路口光谷天地F区F1栋1层02室国美电器旁(近沃尔玛)",
"GymLng":114.4047737708021,
"GymLat":30.477602756943458,
"GymTel":"027-59889833",
"GymPname":"湖北省",
"GymCityname":"武汉市",
"GymAdname":"洪山区",
"GymShopinfo":"0",
"GymCheckInNum":null
},
{
"GymID":"B0FFF33Z8K",
"GymName":"蜜思女子健身会所",
"GymType":"体育休闲服务;运动场馆;健身中心",
"GymTypecode":"080111",
"GymAddress":"中南路11号3层",
"GymLng":114.32694288277922,
"GymLat":30.539960272744516,
"GymTel":"027-87893717;4000273066;18971627372",
"GymPname":"湖北省",
"GymCityname":"武汉市",
"GymAdname":"武昌区",
"GymShopinfo":"0",
"GymCheckInNum":null
},
{
"GymID":"B0FFF34170",
"GymName":"顶立健身国际俱乐部(洪山亚贸店)",
"GymType":"体育休闲服务;运动场馆;健身中心",
"GymTypecode":"080111",
"GymAddress":"武珞路628号武商亚贸广场A座30-31层",
"GymLng":114.33785416671333,
"GymLat":30.53119168415134,
"GymTel":"027-87293818",
"GymPname":"湖北省",
"GymCityname":"武汉市",
"GymAdname":"武昌区",
"GymShopinfo":"0",
"GymCheckInNum":null
},
{
"GymID":"B0FFF36W1V",
"GymName":"康非特私人健身(武广店)",
"GymType":"体育休闲服务;运动场馆;健身中心",
"GymTypecode":"080111",
"GymAddress":"万松园路特一号创世纪广场B区30楼B3001室(世贸广场正对面",
"GymLng":null,
"GymLat":114.26278828145443,
"GymTel":"30.583519006605652",
"GymPname":"15527366940;18771107500",
"GymCityname":"湖北省",
"GymAdname":"武汉市",
"GymShopinfo":"江汉区",
"GymCheckInNum":null
},
{
"GymID":"B0FFF3GASF",
"GymName":"浩沙",
"GymType":"体育休闲服务;运动场馆;健身中心",
"GymTypecode":"080111",
"GymAddress":"珞喻路1号地铁街道口站C出口新世界百货(珞喻路)3楼",
"GymLng":114.34846277325761,
"GymLat":30.529232775789424,
"GymTel":null,
"GymPname":"湖北省",
"GymCityname":"武汉市",
"GymAdname":"洪山区",
"GymShopinfo":"0",
"GymCheckInNum":null
},
{
"GymID":"B0FFF3LL64",
"GymName":"体限健身俱乐部(南一路)",
"GymType":"体育休闲服务;运动场馆;健身中心",
"GymTypecode":"080111",
"GymAddress":"珞瑜路1037号华中科技大学学生服务中心2层",
"GymLng":114.4015037400261,
"GymLat":30.51700338850338,
"GymTel":"15202724691",
"GymPname":"湖北省",
"GymCityname":"武汉市",
"GymAdname":"洪山区",
"GymShopinfo":"0",
"GymCheckInNum":null
},
{
"GymID":"B0FFF3NU1H",
"GymName":"山道健身会所(汉口店)",
"GymType":"体育休闲服务;运动场馆;健身中心",
"GymTypecode":"080111",
"GymAddress":"建设大道王府花园家乐福商场四楼(建设大道家乐福店)",
"GymLng":114.28024526919056,
"GymLat":30.609389773642448,
"GymTel":"027-82900558",
"GymPname":"湖北省",
"GymCityname":"武汉市",
"GymAdname":"江岸区",
"GymShopinfo":"0",
"GymCheckInNum":null
},
{
"GymID":"B0FFF3OGMC",
"GymName":"辉腾健身工作室(兴业路店)",
"GymType":"体育休闲服务;运动场馆;健身中心",
"GymTypecode":"080111",
"GymAddress":"兴业路后湖五路盛世东方小区九栋1单元1501室(近百步亭)",
"GymLng":114.29540230423571,
"GymLat":30.641531332803932,
"GymTel":"13971554916",
"GymPname":"湖北省",
"GymCityname":"武汉市",
"GymAdname":"江岸区",
"GymShopinfo":"0",
"GymCheckInNum":null
},
{
"GymID":"B0FFF3ORD4",
"GymName":"爱迷你健身中心(美院店)",
"GymType":"体育休闲服务;运动场馆;健身中心",
"GymTypecode":"080111",
"GymAddress":"藏龙岛美院南门商业街栗庙商住楼3-14号",
"GymLng":114.41619933229067,
"GymLat":30.393935967644925,
"GymTel":"027-81330800",
"GymPname":"湖北省",
"GymCityname":"武汉市",
"GymAdname":"江夏区",
"GymShopinfo":"0",
"GymCheckInNum":null
},
{
"GymID":"B0FFF40SZ3",
"GymName":"茹阿萨瑜伽",
"GymType":"体育休闲服务;运动场馆;健身中心",
"GymTypecode":"080111",
"GymAddress":"南湖名都A区13栋2单元1603室",
"GymLng":114.31895829097887,
"GymLat":30.50136768765902,
"GymTel":"15826935494",
"GymPname":"湖北省",
"GymCityname":"武汉市",
"GymAdname":"洪山区",
"GymShopinfo":"0",
"GymCheckInNum":null
},
{
"GymID":"B0FFF43UG3",
"GymName":"城市猎人健身会所",
"GymType":"体育休闲服务;运动场馆;健身中心",
"GymTypecode":"080111",
"GymAddress":"江汉路118号港澳中心9层",
"GymLng":114.2847712863659,
"GymLat":30.584882305733196,
"GymTel":"027-82777147;027-83889308",
"GymPname":"湖北省",
"GymCityname":"武汉市",
"GymAdname":"江岸区",
"GymShopinfo":"0",
"GymCheckInNum":null
},
{
"GymID":"B0FFF489FG",
"GymName":"伽音瑜伽",
"GymType":"体育休闲服务;运动场馆;健身中心",
"GymTypecode":"080111",
"GymAddress":"关山大道大彭村长城坐标城B区九台别墅49-2-101号",
"GymLng":114.40800778764886,
"GymLat":30.478511887195918,
"GymTel":"027-87618600",
"GymPname":"湖北省",
"GymCityname":"武汉市",
"GymAdname":"洪山区",
"GymShopinfo":"0",
"GymCheckInNum":null
},
{
"GymID":"B0FFF49CWH",
"GymName":"百城康祺(王家湾店)",
"GymType":"体育休闲服务;运动场馆;健身中心",
"GymTypecode":"080111",
"GymAddress":"汉阳大道687号21世纪购物中心9层(家乐福楼上)",
"GymLng":114.20530543825971,
"GymLat":30.563670543789208,
"GymTel":"15007190722",
"GymPname":"湖北省",
"GymCityname":"武汉市",
"GymAdname":"汉阳区",
"GymShopinfo":"1",
"GymCheckInNum":null
},
{
"GymID":"B0FFF49GDF",
"GymName":"圣瑜伽(民族大道店)",
"GymType":"体育休闲服务;运动场馆;健身中心",
"GymTypecode":"080111",
"GymAddress":"民族大道888号锦绣龙城F区100栋902室(近武商量贩锦绣龙城店)",
"GymLng":114.38616475899501,
"GymLat":30.46931802354082,
"GymTel":"027-86639733;18062585625",
"GymPname":"湖北省",
"GymCityname":"武汉市",
"GymAdname":"江夏区",
"GymShopinfo":"0",
"GymCheckInNum":null
},
{
"GymID":"B0FFF49ZAA",
"GymName":"禅瑜伽",
"GymType":"体育休闲服务;运动场馆;健身中心",
"GymTypecode":"080111",
"GymAddress":"雄楚大道411号翡翠城2209室",
"GymLng":114.36393845565043,
"GymLat":30.509581144934074,
"GymTel":"13971311146;15071302900",
"GymPname":"湖北省",
"GymCityname":"武汉市",
"GymAdname":"洪山区",
"GymShopinfo":"0",
"GymCheckInNum":null
},
{
"GymID":"B0FFF4B7GB",
"GymName":"瑞力菲私人健身工作室(江汉店)",
"GymType":"体育休闲服务;运动场馆;健身中心",
"GymTypecode":"080111",
"GymAddress":"万松园路特1号创世纪广场A1722(世贸广场对面)",
"GymLng":114.26235734062607,
"GymLat":30.583557286737026,
"GymTel":"15071311970;18627997466",
"GymPname":"湖北省",
"GymCityname":"武汉市",
"GymAdname":"江汉区",
"GymShopinfo":"0",
"GymCheckInNum":null
},
{
"GymID":"B0FFF4E9E7",
"GymName":"纯瑜伽工作室(奥山店)",
"GymType":"体育休闲服务;运动场馆;健身中心",
"GymTypecode":"080111",
"GymAddress":"奥山世纪城V公馆1栋1单元2802",
"GymLng":114.35395047995166,
"GymLat":30.62237473414323,
"GymTel":"13971242040;15387172044",
"GymPname":"湖北省",
"GymCityname":"武汉市",
"GymAdname":"洪山区",
"GymShopinfo":"0",
"GymCheckInNum":null
},
{
"GymID":"B0FFF4ETO9",
"GymName":"威秀豪斯国际健身俱乐部",
"GymType":"体育休闲服务;运动场馆;健身中心",
"GymTypecode":"080111",
"GymAddress":"野芷湖西路马湖商贸楼1号楼3层(武汉城市职业学院)",
"GymLng":114.3194456722478,
"GymLat":30.476252843621424,
"GymTel":"027-88049041;027-88109865",
"GymPname":"湖北省",
"GymCityname":"武汉市",
"GymAdname":"洪山区",
"GymShopinfo":"0",
"GymCheckInNum":null
},
{
"GymID":"B0FFF4POO3",
"GymName":"寰YOGA瑜伽会所(西园)",
"GymType":"体育休闲服务;运动场馆;健身中心",
"GymTypecode":"080111",
"GymAddress":"万松园路100号西园F1层",
"GymLng":114.26310784469318,
"GymLat":30.587994093925793,
"GymTel":"027-85600500",
"GymPname":"湖北省",
"GymCityname":"武汉市",
"GymAdname":"江汉区",
"GymShopinfo":"0",
"GymCheckInNum":null
},
{
"GymID":"B0FFF4PQL8",
"GymName":"SASA肚皮舞瑜伽俱乐部(汉口店)",
"GymType":"体育休闲服务;运动场馆;健身中心",
"GymTypecode":"080111",
"GymAddress":"解放大道创世纪广场B区2511号(武广对面)",
"GymLng":114.26287726827378,
"GymLat":30.583510947994064,
"GymTel":"027-85385682",
"GymPname":"湖北省",
"GymCityname":"武汉市",
"GymAdname":"江汉区",
"GymShopinfo":"0",
"GymCheckInNum":null
},
{
"GymID":"B0FFF5AFD8",
"GymName":"竺源瑜伽",
"GymType":"体育休闲服务;运动场馆;健身中心",
"GymTypecode":"080111",
"GymAddress":"杨园街纺机路29号(金域华府4栋2层16号)",
"GymLng":114.34770935098682,
"GymLat":30.603192487139115,
"GymTel":"027-51489972",
"GymPname":"湖北省",
"GymCityname":"武汉市",
"GymAdname":"武昌区",
"GymShopinfo":"0",
"GymCheckInNum":null
},
{
"GymID":"B0FFF5OU9F",
"GymName":"美国帕维尔健身会所(流行视窗购物广场卓豹店)",
"GymType":"体育休闲服务;运动场馆;健身中心",
"GymTypecode":"080111",
"GymAddress":"虎泉街299号流行视窗购物广场(卓豹店)F2层",
"GymLng":114.3787298798533,
"GymLat":30.50775567704335,
"GymTel":"027-87875516;13006125049",
"GymPname":"湖北省",
"GymCityname":"武汉市",
"GymAdname":"洪山区",
"GymShopinfo":"0",
"GymCheckInNum":null
},
{
"GymID":"B0FFF5PWR4",
"GymName":"普拉达武汉健身会所(三金店)",
"GymType":"体育休闲服务;运动场馆;健身中心",
"GymTypecode":"080111",
"GymAddress":"新华路768号",
"GymLng":114.2586647238577,
"GymLat":30.616386696897372,
"GymTel":"027-85586088",
"GymPname":"湖北省",
"GymCityname":"武汉市",
"GymAdname":"江汉区",
"GymShopinfo":"0",
"GymCheckInNum":null
},
{
"GymID":"B0FFF5Q6B4",
"GymName":"佰德私人健身(三阳路店)",
"GymType":"体育休闲服务;运动场馆;健身中心",
"GymTypecode":"080111",
"GymAddress":"三阳路融科天城4期T18栋402室",
"GymLng":114.29393667813487,
"GymLat":30.600839429836526,
"GymTel":"18995555517",
"GymPname":"湖北省",
"GymCityname":"武汉市",
"GymAdname":"江岸区",
"GymShopinfo":"0",
"GymCheckInNum":null
},
{
"GymID":"B0FFF5R6G2",
"GymName":"长青树健身",
"GymType":"体育休闲服务;运动场馆;健身中心",
"GymTypecode":"080111",
"GymAddress":"崇仁路253号省体育局大院内",
"GymLng":114.25489856908924,
"GymLat":30.57880909020496,
"GymTel":null,
"GymPname":"湖北省",
"GymCityname":"武汉市",
"GymAdname":"硚口区",
"GymShopinfo":"0",
"GymCheckInNum":null
},
{
"GymID":"B0FFF5RHPC",
"GymName":"彩艺星舞蹈瑜伽",
"GymType":"体育休闲服务;运动场馆;健身中心",
"GymTypecode":"080111",
"GymAddress":"大华公园世家3期A1-201(中国银行楼上)",
"GymLng":114.32068167790587,
"GymLat":30.499102053399103,
"GymTel":"18627878862;027-87373716;18986204278",
"GymPname":"湖北省",
"GymCityname":"武汉市",
"GymAdname":"洪山区",
"GymShopinfo":"0",
"GymCheckInNum":null
},
{
"GymID":"B0FFF5SNCO",
"GymName":"天天健身中心",
"GymType":"体育休闲服务;运动场馆;健身中心",
"GymTypecode":"080111",
"GymAddress":"省体育局对面",
"GymLng":114.32674732765334,
"GymLat":30.550026242406304,
"GymTel":null,
"GymPname":"湖北省",
"GymCityname":"武汉市",
"GymAdname":"武昌区",
"GymShopinfo":"0",
"GymCheckInNum":null
},
{
"GymID":"B0FFF5XTRF",
"GymName":"若水瑜伽馆(汉口店)",
"GymType":"体育休闲服务;运动场馆;健身中心",
"GymTypecode":"080111",
"GymAddress":"京汉大道528号汉口中心嘉园1栋1单元1001室(利济路轻轨站旁)",
"GymLng":114.26542804553759,
"GymLat":30.579843432944998,
"GymTel":"13618646567;13659886601",
"GymPname":"湖北省",
"GymCityname":"武汉市",
"GymAdname":"硚口区",
"GymShopinfo":"0",
"GymCheckInNum":null
},
{
"GymID":"B0FFF5YRVS",
"GymName":"玛莎英皇健身会所(西园)",
"GymType":"体育休闲服务;运动场馆;健身中心",
"GymTypecode":"080111",
"GymAddress":"万松园路100号西园F2层",
"GymLng":114.26402262333445,
"GymLat":30.588581213369178,
"GymTel":null,
"GymPname":"湖北省",
"GymCityname":"武汉市",
"GymAdname":"江汉区",
"GymShopinfo":"0",
"GymCheckInNum":null
},
{
"GymID":"B0FFF61IYQ",
"GymName":"至真瑜伽本部",
"GymType":"体育休闲服务;运动场馆;健身中心",
"GymTypecode":"080111",
"GymAddress":"高新技术开发区万科城市花园D2-101",
"GymLng":114.40060982973051,
"GymLat":30.463030518850637,
"GymTel":"15972147928",
"GymPname":"湖北省",
"GymCityname":"武汉市",
"GymAdname":"江夏区",
"GymShopinfo":"0",
"GymCheckInNum":null
},
{
"GymID":"B0FFF634O3",
"GymName":"bh健身(奥山店)",
"GymType":"体育休闲服务;运动场馆;健身中心",
"GymTypecode":"080111",
"GymAddress":"和平大道819号奥山世纪城3层(近奥山世纪城)",
"GymLng":114.35524022451308,
"GymLat":30.61877025556814,
"GymTel":null,
"GymPname":"湖北省",
"GymCityname":"武汉市",
"GymAdname":"洪山区",
"GymShopinfo":"0",
"GymCheckInNum":null
},
{
"GymID":"B0FFF64A8T",
"GymName":"乐舞士舞蹈工作室",
"GymType":"体育休闲服务;运动场馆;健身中心",
"GymTypecode":"080111",
"GymAddress":"武昌街道口未来城购物中心E座2505",
"GymLng":114.34862174826885,
"GymLat":30.52703022099839,
"GymTel":"027-87051977;18971577390;18627763941",
"GymPname":"湖北省",
"GymCityname":"武汉市",
"GymAdname":"洪山区",
"GymShopinfo":"0",
"GymCheckInNum":null
},
{
"GymID":"B0FFF64U3N",
"GymName":"锋尚健身会所",
"GymType":"体育休闲服务;运动场馆;健身中心",
"GymTypecode":"080111",
"GymAddress":"新洲大街51号老电影院三楼",
"GymLng":114.79606367256416,
"GymLat":30.846188353440315,
"GymTel":"027-89629058",
"GymPname":"湖北省",
"GymCityname":"武汉市",
"GymAdname":"新洲区",
"GymShopinfo":"0",
"GymCheckInNum":null
},
{
"GymID":"B0FFF68PW0",
"GymName":"武昌区瑞斯健身工作室中南店",
"GymType":"体育休闲服务;运动场馆;健身中心",
"GymTypecode":"080111",
"GymAddress":"中南国际城C2栋903室(中建三局旁)",
"GymLng":114.324572103247,
"GymLat":30.536058102903024,
"GymTel":"027-87222363;15071498097",
"GymPname":"湖北省",
"GymCityname":"武汉市",
"GymAdname":"武昌区",
"GymShopinfo":"0",
"GymCheckInNum":null
},
{
"GymID":"B0FFF68WSD",
"GymName":"武汉零极限健身私教社",
"GymType":"体育休闲服务;运动场馆;健身中心",
"GymTypecode":"080111",
"GymAddress":"车站路胜利街同兴里19号",
"GymLng":114.2955315154877,
"GymLat":30.590997657997395,
"GymTel":"13628660618",
"GymPname":"湖北省",
"GymCityname":"武汉市",
"GymAdname":"江岸区",
"GymShopinfo":"0",
"GymCheckInNum":null
},
{
"GymID":"B0FFF6Y7GJ",
"GymName":"起舞舞蹈(汉阳店)",
"GymType":"体育休闲服务;运动场馆;健身中心",
"GymTypecode":"080111",
"GymAddress":"汉阳大道139号汉阳商场4楼",
"GymLng":114.26147015871004,
"GymLat":30.552013235940702,
"GymTel":null,
"GymPname":"湖北省",
"GymCityname":"武汉市",
"GymAdname":"汉阳区",
"GymShopinfo":"0",
"GymCheckInNum":null
},
{
"GymID":"B0FFF6ZDFX",
"GymName":"水寒瑜伽工作室",
"GymType":"体育休闲服务;运动场馆;健身中心",
"GymTypecode":"080111",
"GymAddress":"雄楚大道御景名门3栋601室(理工大学站下车即到)(近亚贸、石牌岭、湖北省图书出版城、理工大学、珞狮南路)",
"GymLng":114.33338954118973,
"GymLat":30.515803821493684,
"GymTel":"18062503799",
"GymPname":"湖北省",
"GymCityname":"武汉市",
"GymAdname":"洪山区",
"GymShopinfo":"0",
"GymCheckInNum":null
},
{
"GymID":"B0FFF85CJ3",
"GymName":"云顶瑜伽(光谷店)",
"GymType":"体育休闲服务;运动场馆;健身中心",
"GymTypecode":"080111",
"GymAddress":"鲁磨路联峰大厦14楼1466室(近光谷国际广场)",
"GymLng":114.39263700761364,
"GymLat":30.509793501008357,
"GymTel":null,
"GymPname":"湖北省",
"GymCityname":"武汉市",
"GymAdname":"洪山区",
"GymShopinfo":"0",
"GymCheckInNum":null
},
{
"GymID":"B0FFF8DC9W",
"GymName":"乐活私人健身工作室",
"GymType":"体育休闲服务;运动场馆;健身中心",
"GymTypecode":"080111",
"GymAddress":"徐东大街君临天下C座1202室",
"GymLng":114.33593162442726,
"GymLat":30.59484057123097,
"GymTel":"027-50866899;18507104455",
"GymPname":"湖北省",
"GymCityname":"武汉市",
"GymAdname":"武昌区",
"GymShopinfo":"0",
"GymCheckInNum":null
},
{
"GymID":"B0FFF9MXMR",
"GymName":"帅帅健身",
"GymType":"体育休闲服务;运动场馆;健身中心",
"GymTypecode":"080111",
"GymAddress":"光谷大道现代森林小镇现代城建集团大楼8楼(光谷金融港正对面",
"GymLng":null,
"GymLat":114.4145313880586,
"GymTel":"30.45840936198217",
"GymPname":"18971057828",
"GymCityname":"湖北省",
"GymAdname":"武汉市",
"GymShopinfo":"洪山区",
"GymCheckInNum":null
},
{
"GymID":"B0FFF9SGP3",
"GymName":"谦谦健身俱乐部(泛海城市广场)",
"GymType":"体育休闲服务;运动场馆;健身中心",
"GymTypecode":"080111",
"GymAddress":"云彩路198号泛海城市广场F6层",
"GymLng":114.25020894180783,
"GymLat":30.60514447051903,
"GymTel":"027-83771258;027-88027786",
"GymPname":"湖北省",
"GymCityname":"武汉市",
"GymAdname":"江汉区",
"GymShopinfo":"0",
"GymCheckInNum":null
},
{
"GymID":"B0FFF9ZX6G",
"GymName":"凯撒健身(崇光百货店)",
"GymType":"体育休闲服务;运动场馆;健身中心",
"GymTypecode":"080111",
"GymAddress":"解放大道374号庄胜崇光百货",
"GymLng":114.26872555825682,
"GymLat":30.584417948362212,
"GymTel":"13995500381",
"GymPname":"湖北省",
"GymCityname":"武汉市",
"GymAdname":"江汉区",
"GymShopinfo":"0",
"GymCheckInNum":null
},
{
"GymID":"B0FFF9ZY77",
"GymName":"天城会馆",
"GymType":"体育休闲服务;运动场馆;健身中心",
"GymTypecode":"080111",
"GymAddress":"解放大道球场街融科天城3期广场(普金天城会馆)(靠近大智路、三阳路轻轨站)",
"GymLng":114.2927192542809,
"GymLat":30.59989173851793,
"GymTel":"027-82718688",
"GymPname":"湖北省",
"GymCityname":"武汉市",
"GymAdname":"江岸区",
"GymShopinfo":"0",
"GymCheckInNum":null
},
{
"GymID":"B0FFF9ZZG8",
"GymName":"尚体运动健康管理中心",
"GymType":"体育休闲服务;运动场馆;健身中心",
"GymTypecode":"080111",
"GymAddress":"新华下路11号汉口文化体育中心4楼(近三五醇酒店)",
"GymLng":114.26340444700857,
"GymLat":30.603618833770003,
"GymTel":"027-58903601;027-58903600",
"GymPname":"湖北省",
"GymCityname":"武汉市",
"GymAdname":"江汉区",
"GymShopinfo":"0",
"GymCheckInNum":null
},
{
"GymID":"B0FFFAFVC8",
"GymName":"百城康祺健身会所(汉商银座店)",
"GymType":"体育休闲服务;运动场馆;健身中心",
"GymTypecode":"080111",
"GymAddress":"汉阳大道137号汉商银座购物中心B座4层",
"GymLng":114.26189013563217,
"GymLat":30.55175905001212,
"GymTel":"027-84239088",
"GymPname":"湖北省",
"GymCityname":"武汉市",
"GymAdname":"汉阳区",
"GymShopinfo":"0",
"GymCheckInNum":null
},
{
"GymID":"B0FFFAGLTZ",
"GymName":"武汉市江岸区米亚瑜伽会馆",
"GymType":"体育休闲服务;运动场馆;健身中心",
"GymTypecode":"080111",
"GymAddress":"建设大道145号和祥体育运动中心二楼(建设大道科技馆旁100米)",
"GymLng":114.29869326140035,
"GymLat":30.62656117588683,
"GymTel":"027-82919882;13986030728",
"GymPname":"湖北省",
"GymCityname":"武汉市",
"GymAdname":"江岸区",
"GymShopinfo":"0",
"GymCheckInNum":null
},
{
"GymID":"B0FFFAJBIU",
"GymName":"归依瑜伽健康会所",
"GymType":"体育休闲服务;运动场馆;健身中心",
"GymTypecode":"080111",
"GymAddress":"秦园东路水岸星城B区G6栋2单元203室",
"GymLng":114.33883541011272,
"GymLat":30.579852939515295,
"GymTel":"13638615209",
"GymPname":"湖北省",
"GymCityname":"武汉市",
"GymAdname":"武昌区",
"GymShopinfo":"0",
"GymCheckInNum":null
},
{
"GymID":"B0FFFAMUI4",
"GymName":"元泉瑜伽会馆(领秀城店)",
"GymType":"体育休闲服务;运动场馆;健身中心",
"GymTypecode":"080111",
"GymAddress":"雄楚大道领秀城3栋1304室",
"GymLng":114.3683698459495,
"GymLat":30.507522484261816,
"GymTel":"027-86645011;18071139338;18571705869",
"GymPname":"湖北省",
"GymCityname":"武汉市",
"GymAdname":"洪山区",
"GymShopinfo":"0",
"GymCheckInNum":null
},
{
"GymID":"B0FFFCNITD",
"GymName":"王杰私人健身会所",
"GymType":"体育休闲服务;运动场馆;健身中心",
"GymTypecode":"080111",
"GymAddress":"江大路20号大江天际1栋2单元2704",
"GymLng":114.28793592579477,
"GymLat":30.62080064240965,
"GymTel":"027-82922016;18171239747",
"GymPname":"湖北省",
"GymCityname":"武汉市",
"GymAdname":"江岸区",
"GymShopinfo":"0",
"GymCheckInNum":null
},
{
"GymID":"B0FFFCNMAO",
"GymName":"瑞兹卡健身(群星城)",
"GymType":"体育休闲服务;运动场馆;健身中心",
"GymTypecode":"080111",
"GymAddress":"徐东大街120号群星城6F层",
"GymLng":114.3426790146699,
"GymLat":30.586604533874752,
"GymTel":"027-86770007;027-88100500",
"GymPname":"湖北省",
"GymCityname":"武汉市",
"GymAdname":"武昌区",
"GymShopinfo":"0",
"GymCheckInNum":null
},
{
"GymID":"B0FFFCNSBG",
"GymName":"元泉瑜伽(黄石路店)",
"GymType":"体育休闲服务;运动场馆;健身中心",
"GymTypecode":"080111",
"GymAddress":"黄石路德润大厦A座5层",
"GymLng":114.28559316904935,
"GymLat":30.58837483597001,
"GymTel":"027-82751108;027-82751055",
"GymPname":"湖北省",
"GymCityname":"武汉市",
"GymAdname":"江岸区",
"GymShopinfo":"0",
"GymCheckInNum":null
},
{
"GymID":"B0FFFCRWMR",
"GymName":"菲尼斯健身",
"GymType":"体育休闲服务;运动场馆;健身中心",
"GymTypecode":"080111",
"GymAddress":"京汉大道前进一路路口万科金色家园2期4层428",
"GymLng":114.27552697255895,
"GymLat":30.584099204577274,
"GymTel":"027-83963407;18907129500",
"GymPname":"湖北省",
"GymCityname":"武汉市",
"GymAdname":"江汉区",
"GymShopinfo":"0",
"GymCheckInNum":null
},
{
"GymID":"B0FFFD3862",
"GymName":"迈欧健身游泳(南湖店)",
"GymType":"体育休闲服务;运动场馆;健身中心",
"GymTypecode":"080111",
"GymAddress":"富安街南湖名都A区",
"GymLng":114.31834316873791,
"GymLat":30.5027754475141,
"GymTel":"027-59230007;4000863358",
"GymPname":"湖北省",
"GymCityname":"武汉市",
"GymAdname":"洪山区",
"GymShopinfo":"0",
"GymCheckInNum":null
},
{
"GymID":"B0FFFDAWBJ",
"GymName":"健乐美健身(工程大学旗舰店)",
"GymType":"体育休闲服务;运动场馆;健身中心",
"GymTypecode":"080111",
"GymAddress":"金融港一路泰塑学生公寓二食堂3楼",
"GymLng":114.42652738774869,
"GymLat":30.458219091814673,
"GymTel":"027-51333344;13886182226",
"GymPname":"湖北省",
"GymCityname":"武汉市",
"GymAdname":"江夏区",
"GymShopinfo":"0",
"GymCheckInNum":null
},
{
"GymID":"B0FFFDAZD5",
"GymName":"全民健身中心",
"GymType":"体育休闲服务;运动场馆;健身中心",
"GymTypecode":"080111",
"GymAddress":"珞瑜路461号体育学院重竞技馆1楼",
"GymLng":114.37166331244856,
"GymLat":30.521058810993114,
"GymTel":"027-87190093;027-87191217",
"GymPname":"湖北省",
"GymCityname":"武汉市",
"GymAdname":"洪山区",
"GymShopinfo":"0",
"GymCheckInNum":null
},
{
"GymID":"B0FFFDCGSN",
"GymName":"山道健身会所(曙光商贸城)",
"GymType":"体育休闲服务;运动场馆;健身中心|生活服务;洗浴推拿场所;洗浴推拿场所",
"GymTypecode":"080111|071400",
"GymAddress":"民族大道128号曙光商贸城F5层",
"GymLng":114.39066579233797,
"GymLat":30.484213372267533,
"GymTel":"027-87855883",
"GymPname":"湖北省",
"GymCityname":"武汉市",
"GymAdname":"洪山区",
"GymShopinfo":"0",
"GymCheckInNum":null
},
{
"GymID":"B0FFFDCL6G",
"GymName":"尚美健身(湖工店)",
"GymType":"体育休闲服务;运动场馆;健身中心",
"GymTypecode":"080111",
"GymAddress":"湖北工业大学西区生活广场四楼",
"GymLng":114.29995497478575,
"GymLat":30.482674956427857,
"GymTel":"13871446296;18627754665",
"GymPname":"湖北省",
"GymCityname":"武汉市",
"GymAdname":"洪山区",
"GymShopinfo":"0",
"GymCheckInNum":null
},
{
"GymID":"B0FFFDMNDB",
"GymName":"禅易瑜伽",
"GymType":"体育休闲服务;运动场馆;健身中心",
"GymTypecode":"080111",
"GymAddress":"丁字桥南湖城市广场沃尔玛对面",
"GymLng":29163502,
"GymLat":114.32177121912049,
"GymTel":"30.506921646934966",
"GymPname":"18602748639",
"GymCityname":"湖北省",
"GymAdname":"武汉市",
"GymShopinfo":"洪山区",
"GymCheckInNum":null
},
{
"GymID":"B0FFFDUOAI",
"GymName":"英倍斯瑜伽舞蹈健身",
"GymType":"体育休闲服务;运动场馆;健身中心",
"GymTypecode":"080111",
"GymAddress":"复江道和熊廷弼街交叉口宝恒大厦4层",
"GymLng":114.30867637609713,
"GymLat":30.353244993106983,
"GymTel":null,
"GymPname":"湖北省",
"GymCityname":"武汉市",
"GymAdname":"江夏区",
"GymShopinfo":"0",
"GymCheckInNum":null
},
{
"GymID":"B0FFFDX5LZ",
"GymName":"天池瑜伽馆(东风阳光城店)",
"GymType":"体育休闲服务;运动场馆;健身中心",
"GymTypecode":"080111",
"GymAddress":"沌口开发区东风阳光城荟景苑3栋112-113号(日晷广场旁)",
"GymLng":114.1489233442096,
"GymLat":30.499919262280073,
"GymTel":"027-84288887;15882325032",
"GymPname":"湖北省",
"GymCityname":"武汉市",
"GymAdname":"蔡甸区",
"GymShopinfo":"0",
"GymCheckInNum":null
},
{
"GymID":"B0FFFE575E",
"GymName":"靓彩瑜伽工作室",
"GymType":"体育休闲服务;运动场馆;健身中心",
"GymTypecode":"080111",
"GymAddress":"阳逻镇金融街185号",
"GymLng":114.56839962989834,
"GymLat":30.660988798782917,
"GymTel":"15927271528",
"GymPname":"湖北省",
"GymCityname":"武汉市",
"GymAdname":"新洲区",
"GymShopinfo":"0",
"GymCheckInNum":null
},
{
"GymID":"B0FFFE6UX7",
"GymName":"元泉瑜伽(沌口店)",
"GymType":"体育休闲服务;运动场馆;健身中心",
"GymTypecode":"080111",
"GymAddress":"经济开发区蔡甸沌口经开万达B5座2203室(工商银行对面写字楼)",
"GymLng":114.17028063453306,
"GymLat":30.510114699708794,
"GymTel":"027-84769342;15971490714",
"GymPname":"湖北省",
"GymCityname":"武汉市",
"GymAdname":"蔡甸区",
"GymShopinfo":"0",
"GymCheckInNum":null
},
{
"GymID":"B0FFFEC04D",
"GymName":"菲力健身俱乐部",
"GymType":"体育休闲服务;运动场馆;健身中心",
"GymTypecode":"080111",
"GymAddress":"黄兴路28号长青广场大智路轻轨南300米沃尔玛超市2层",
"GymLng":114.29135544869354,
"GymLat":30.59333341582239,
"GymTel":"027-82824441",
"GymPname":"湖北省",
"GymCityname":"武汉市",
"GymAdname":"江岸区",
"GymShopinfo":"0",
"GymCheckInNum":null
},
{
"GymID":"B0FFFEFQB9",
"GymName":"鑫林健身会所",
"GymType":"体育休闲服务;运动场馆;健身中心",
"GymTypecode":"080111",
"GymAddress":"大花岭小区g栋",
"GymLng":114.30529085695026,
"GymLat":30.41854923078364,
"GymTel":"13986043100",
"GymPname":"湖北省",
"GymCityname":"武汉市",
"GymAdname":"江夏区",
"GymShopinfo":"0",
"GymCheckInNum":null
},
{
"GymID":"B0FFFEFQS9",
"GymName":"动美体健身俱乐部",
"GymType":"体育休闲服务;运动场馆;健身中心",
"GymTypecode":"080111",
"GymAddress":"李纸路海天大厦4层",
"GymLng":114.30697210012562,
"GymLat":30.42140957234645,
"GymTel":null,
"GymPname":"湖北省",
"GymCityname":"武汉市",
"GymAdname":"江夏区",
"GymShopinfo":"0",
"GymCheckInNum":null
},
{
"GymID":"B0FFFEFRRQ",
"GymName":"海天首义健身房",
"GymType":"体育休闲服务;运动场馆;健身中心",
"GymTypecode":"080111",
"GymAddress":"李纸路海天大厦15层",
"GymLng":114.3069721002116,
"GymLat":30.421408572562154,
"GymTel":null,
"GymPname":"湖北省",
"GymCityname":"武汉市",
"GymAdname":"江夏区",
"GymShopinfo":"0",
"GymCheckInNum":null
},
{
"GymID":"B0FFFEFSDH",
"GymName":"爱尚健身(武汉工业职业技术学院校医院西北)",
"GymType":"体育休闲服务;运动场馆;健身中心",
"GymTypecode":"080111",
"GymAddress":"新路村李纸路何家墩132号",
"GymLng":114.30558492665322,
"GymLat":30.447507122866103,
"GymTel":"027-59002107;13476294939",
"GymPname":"湖北省",
"GymCityname":"武汉市",
"GymAdname":"洪山区",
"GymShopinfo":"0",
"GymCheckInNum":null
},
{
"GymID":"B0FFFEIEAE",
"GymName":"蓝诚健身",
"GymType":"体育休闲服务;运动场馆;健身中心",
"GymTypecode":"080111",
"GymAddress":"关山大道111号光谷时代广场A座5层",
"GymLng":114.40880841875774,
"GymLat":30.50396605627918,
"GymTel":"027-86530123",
"GymPname":"湖北省",
"GymCityname":"武汉市",
"GymAdname":"洪山区",
"GymShopinfo":"0",
"GymCheckInNum":null
},
{
"GymID":"B0FFFEY3PQ",
"GymName":"光明万丽酒店-健身俱乐部",
"GymType":"体育休闲服务;运动场馆;健身中心",
"GymTypecode":"080111",
"GymAddress":"徐东大街160号武汉光明万丽酒店4楼",
"GymLng":114.35073711696772,
"GymLat":30.58197168055898,
"GymTel":null,
"GymPname":"湖北省",
"GymCityname":"武汉市",
"GymAdname":"武昌区",
"GymShopinfo":"0",
"GymCheckInNum":null
},
{
"GymID":"B0FFFFMWX4",
"GymName":"天竺瑜伽(复江道)",
"GymType":"体育休闲服务;运动场馆;健身中心",
"GymTypecode":"080111",
"GymAddress":"复江道237号(名典咖啡楼上)",
"GymLng":114.30808337663646,
"GymLat":30.352129253066096,
"GymTel":"027-87951866",
"GymPname":"湖北省",
"GymCityname":"武汉市",
"GymAdname":"江夏区",
"GymShopinfo":"0",
"GymCheckInNum":null
},
{
"GymID":"B0FFFFN6XX",
"GymName":"元泉瑜伽会所(兴新街)",
"GymType":"体育休闲服务;运动场馆;健身中心",
"GymTypecode":"080111",
"GymAddress":"兴新街新华书店3层(建设银行对面)",
"GymLng":114.30391768573188,
"GymLat":30.350912971886526,
"GymTel":"027-87027377",
"GymPname":"湖北省",
"GymCityname":"武汉市",
"GymAdname":"江夏区",
"GymShopinfo":"0",
"GymCheckInNum":null
},
{
"GymID":"B0FFFFN7WR",
"GymName":"爱尚瑜伽会所",
"GymType":"体育休闲服务;运动场馆;健身中心",
"GymTypecode":"080111",
"GymAddress":"凤凰街与齐安大道交叉口西北50米",
"GymLng":114.79824830251053,
"GymLat":30.838882038228583,
"GymTel":"027-86927588",
"GymPname":"湖北省",
"GymCityname":"武汉市",
"GymAdname":"新洲区",
"GymShopinfo":"0",
"GymCheckInNum":null
},
{
"GymID":"B0FFFFNBVY",
"GymName":"空中健身(水岸国际店)",
"GymType":"体育休闲服务;运动场馆;健身中心",
"GymTypecode":"080111",
"GymAddress":"和平街三角路村福星惠誉水岸国际6项目4号楼3层4-301",
"GymLng":114.31680014662552,
"GymLat":30.577969315460752,
"GymTel":"13667209211;027-88223005",
"GymPname":"湖北省",
"GymCityname":"武汉市",
"GymAdname":"武昌区",
"GymShopinfo":"0",
"GymCheckInNum":null
},
{
"GymID":"B0FFFFNKXJ",
"GymName":"海尚运动会所",
"GymType":"体育休闲服务;运动场馆;健身中心",
"GymTypecode":"080111",
"GymAddress":"雅安街108号",
"GymLng":114.31123975606702,
"GymLat":30.511598234344547,
"GymTel":"027-88018250;15202769493",
"GymPname":"湖北省",
"GymCityname":"武汉市",
"GymAdname":"武昌区",
"GymShopinfo":"0",
"GymCheckInNum":null
},
{
"GymID":"B0FFFFNMBM",
"GymName":"纤雅瑜伽馆",
"GymType":"体育休闲服务;运动场馆;健身中心",
"GymTypecode":"080111",
"GymAddress":"汉阳大道512乾能大厦3层",
"GymLng":114.23190630268934,
"GymLat":30.558091875894117,
"GymTel":"027-84668327",
"GymPname":"湖北省",
"GymCityname":"武汉市",
"GymAdname":"汉阳区",
"GymShopinfo":"0",
"GymCheckInNum":null
},
{
"GymID":"B0FFFFNMTB",
"GymName":"NO.万健身工作室",
"GymType":"体育休闲服务;运动场馆;健身中心",
"GymTypecode":"080111",
"GymAddress":"平安路205号",
"GymLng":114.3141701167455,
"GymLat":30.511695699485518,
"GymTel":"18971308985",
"GymPname":"湖北省",
"GymCityname":"武汉市",
"GymAdname":"武昌区",
"GymShopinfo":"0",
"GymCheckInNum":null
},
{
"GymID":"B0FFFFNOAS",
"GymName":"格美健身俱乐部",
"GymType":"体育休闲服务;运动场馆;健身中心",
"GymTypecode":"080111",
"GymAddress":"后湖二路与兴业路交界口(中百超市2层)",
"GymLng":114.28805340371485,
"GymLat":30.63692373013362,
"GymTel":"13377860847;15927406840",
"GymPname":"湖北省",
"GymCityname":"武汉市",
"GymAdname":"江岸区",
"GymShopinfo":"0",
"GymCheckInNum":null
},
{
"GymID":"B0FFFFNPEK",
"GymName":"AD健身会所(融侨华府店)",
"GymType":"体育休闲服务;运动场馆;健身中心",
"GymTypecode":"080111",
"GymAddress":"和平大道666号融侨华府AD健身会所(3层楼站)",
"GymLng":114.31127638962819,
"GymLat":30.572885613777355,
"GymTel":"15202701551",
"GymPname":"湖北省",
"GymCityname":"武汉市",
"GymAdname":"武昌区",
"GymShopinfo":"0",
"GymCheckInNum":null
},
{
"GymID":"B0FFFFOTAM",
"GymName":"零度舞蹈",
"GymType":"体育休闲服务;运动场馆;健身中心",
"GymTypecode":"080111",
"GymAddress":"街道口阜华大厦C座2303室(群光广场与乐天城旁",
"GymLng":2,
"GymLat":114.34879840864122,
"GymTel":"30.52816656472647",
"GymPname":"13871450008;15872370172",
"GymCityname":"湖北省",
"GymAdname":"武汉市",
"GymShopinfo":"洪山区",
"GymCheckInNum":null
},
{
"GymID":"B0FFFFP9YR",
"GymName":"永丽健身会",
"GymType":"体育休闲服务;运动场馆;健身中心",
"GymTypecode":"080111",
"GymAddress":"江夏大道世纪星语1-2层",
"GymLng":114.3259080666802,
"GymLat":30.361014098886788,
"GymTel":"027-87977999;027-87907999;18064070545",
"GymPname":"湖北省",
"GymCityname":"武汉市",
"GymAdname":"江夏区",
"GymShopinfo":"0",
"GymCheckInNum":null
},
{
"GymID":"B0FFFFRY2F",
"GymName":"健身陀螺",
"GymType":"体育休闲服务;运动场馆;健身中心",
"GymTypecode":"080111",
"GymAddress":"交易街与铭新街交叉口西50米",
"GymLng":114.28793651485219,
"GymLat":30.590847525160875,
"GymTel":null,
"GymPname":"湖北省",
"GymCityname":"武汉市",
"GymAdname":"江岸区",
"GymShopinfo":"0",
"GymCheckInNum":null
},
{
"GymID":"B0FFFFZ5TZ",
"GymName":"山道健身(藏龙店)",
"GymType":"体育休闲服务;运动场馆;健身中心",
"GymTypecode":"080111",
"GymAddress":"环岛路武汉市体育科技学院对面商业街66号(武汉体育科技学院对面)",
"GymLng":114.43350120664849,
"GymLat":30.400179276892953,
"GymTel":"15827352211",
"GymPname":"湖北省",
"GymCityname":"武汉市",
"GymAdname":"江夏区",
"GymShopinfo":"0",
"GymCheckInNum":null
},
{
"GymID":"B0FFFGLK7W",
"GymName":"百城康祺健身会所(众圆广场店)",
"GymType":"体育休闲服务;运动场馆;健身中心",
"GymTypecode":"080111",
"GymAddress":"和平大道959号武商众圆广场6层",
"GymLng":114.3711572254276,
"GymLat":30.62864384092205,
"GymTel":"027-86886399;13296616944",
"GymPname":"湖北省",
"GymCityname":"武汉市",
"GymAdname":"青山区",
"GymShopinfo":"0",
"GymCheckInNum":null
},
{
"GymID":"B0FFFGLTOF",
"GymName":"思迈威健身(弘毅分店)",
"GymType":"体育休闲服务;运动场馆;健身中心",
"GymTypecode":"080111",
"GymAddress":"东湖路140号弘毅大酒店内",
"GymLng":114.35007146357457,
"GymLat":30.553748933007878,
"GymTel":"027-67819767;027-88186036",
"GymPname":"湖北省",
"GymCityname":"武汉市",
"GymAdname":"武昌区",
"GymShopinfo":"0",
"GymCheckInNum":null
},
{
"GymID":"B0FFFGRZQH",
"GymName":"体限健身俱乐部湖经至尊店",
"GymType":"体育休闲服务;运动场馆;健身中心",
"GymTypecode":"080111",
"GymAddress":"湖北经济学院商业服务中心2层",
"GymLng":114.42737852941934,
"GymLat":30.418278502874138,
"GymTel":"027-87370811",
"GymPname":"湖北省",
"GymCityname":"武汉市",
"GymAdname":"江夏区",
"GymShopinfo":"0",
"GymCheckInNum":null
},
{
"GymID":"B0FFFGUISL",
"GymName":"库爱健身部落(华师传媒店)",
"GymType":"体育休闲服务;运动场馆;健身中心",
"GymTypecode":"080111",
"GymAddress":"藏龙南街光彩四季步行街76号",
"GymLng":114.41971862754285,
"GymLat":30.441463196925742,
"GymTel":"15391566005",
"GymPname":"湖北省",
"GymCityname":"武汉市",
"GymAdname":"江夏区",
"GymShopinfo":"0",
"GymCheckInNum":null
},
{
"GymID":"B0FFFGUO69",
"GymName":"美跃健身俱乐部",
"GymType":"体育休闲服务;运动场馆;健身中心",
"GymTypecode":"080111",
"GymAddress":"东湖风景区街道(洪山)武汉科技大学城市学院侧门",
"GymLng":114.42489280244644,
"GymLat":30.589927227594355,
"GymTel":null,
"GymPname":"湖北省",
"GymCityname":"武汉市",
"GymAdname":"洪山区",
"GymShopinfo":"0",
"GymCheckInNum":null
},
{
"GymID":"B0FFFGUQY1",
"GymName":"宝力恒健身俱乐部",
"GymType":"体育休闲服务;运动场馆;健身中心",
"GymTypecode":"080111",
"GymAddress":"梁山头商业街C座3层",
"GymLng":114.42559660315209,
"GymLat":30.423372060257268,
"GymTel":"13317142429",
"GymPname":"湖北省",
"GymCityname":"武汉市",
"GymAdname":"江夏区",
"GymShopinfo":"0",
"GymCheckInNum":null
},
{
"GymID":"B0FFFGUTU8",
"GymName":"爱维思健身俱乐部",
"GymType":"体育休闲服务;运动场馆;健身中心",
"GymTypecode":"080111",
"GymAddress":"满江红",
"GymLng":114.3516491873625,
"GymLat":30.521729999453136,
"GymTel":"027-67863986",
"GymPname":"湖北省",
"GymCityname":"武汉市",
"GymAdname":"洪山区",
"GymShopinfo":"0",
"GymCheckInNum":null
},
{
"GymID":"B0FFFGUWE8",
"GymName":"悍风健身俱乐部(科技大学城市学院店)",
"GymType":"体育休闲服务;运动场馆;健身中心",
"GymTypecode":"080111",
"GymAddress":"武汉科技大学城市学院先锋综合市场2层",
"GymLng":114.42447793126325,
"GymLat":30.591006300688846,
"GymTel":"027-87197119",
"GymPname":"湖北省",
"GymCityname":"武汉市",
"GymAdname":"洪山区",
"GymShopinfo":"0",
"GymCheckInNum":null
},
{
"GymID":"B0FFFGUXC9",
"GymName":"集结号健身",
"GymType":"体育休闲服务;运动场馆;健身中心",
"GymTypecode":"080111",
"GymAddress":"东湖风景区街道武汉科技大学城市学院后街(洪山)",
"GymLng":114.41977262099878,
"GymLat":30.591977618273866,
"GymTel":null,
"GymPname":"湖北省",
"GymCityname":"武汉市",
"GymAdname":"洪山区",
"GymShopinfo":"0",
"GymCheckInNum":null
},
{
"GymID":"B0FFFGV2R1",
"GymName":"泊威尔健身会所",
"GymType":"体育休闲服务;运动场馆;健身中心",
"GymTypecode":"080111",
"GymAddress":"当代学生公寓对面荷兰风情园普罗旺斯酒店B1层",
"GymLng":114.39493985156456,
"GymLat":30.497389879447148,
"GymTel":"027-59887802",
"GymPname":"湖北省",
"GymCityname":"武汉市",
"GymAdname":"洪山区",
"GymShopinfo":"0",
"GymCheckInNum":null
},
{
"GymID":"B0FFFGV5LL",
"GymName":"山道健身会所(传媒店)",
"GymType":"体育休闲服务;运动场馆;健身中心",
"GymTypecode":"080111",
"GymAddress":"长咀创业商业广场",
"GymLng":114.42025442862116,
"GymLat":30.442357540245403,
"GymTel":"027-81611043",
"GymPname":"湖北省",
"GymCityname":"武汉市",
"GymAdname":"江夏区",
"GymShopinfo":"0",
"GymCheckInNum":null
},
{
"GymID":"B0FFFGV6G4",
"GymName":"MDY健身俱乐部",
"GymType":"体育休闲服务;运动场馆;健身中心",
"GymTypecode":"080111",
"GymAddress":"武汉科技大学黄家湖校区北五舍1层",
"GymLng":114.26274411268713,
"GymLat":30.44581240829197,
"GymTel":null,
"GymPname":"湖北省",
"GymCityname":"武汉市",
"GymAdname":"洪山区",
"GymShopinfo":"0",
"GymCheckInNum":null
},
{
"GymID":"B0FFFGVH3W",
"GymName":"SIS赛易斯健康管理俱乐部",
"GymType":"体育休闲服务;运动场馆;健身中心",
"GymTypecode":"080111",
"GymAddress":"彭刘扬路金榜名苑2栋3层(艳阳天对面)",
"GymLng":114.29417645154196,
"GymLat":30.542156400573074,
"GymTel":"027-88863133;13971443995",
"GymPname":"湖北省",
"GymCityname":"武汉市",
"GymAdname":"武昌区",
"GymShopinfo":"0",
"GymCheckInNum":null
},
{
"GymID":"B0FFFGVK4V",
"GymName":"st健身",
"GymType":"体育休闲服务;运动场馆;健身中心",
"GymTypecode":"080111",
"GymAddress":"彭刘杨西路汉飞逛逛街1号楼4层(武汉音乐学院)",
"GymLng":114.29116304948657,
"GymLat":30.542677976964285,
"GymTel":"027-88771886",
"GymPname":"湖北省",
"GymCityname":"武汉市",
"GymAdname":"武昌区",
"GymShopinfo":"0",
"GymCheckInNum":null
},
{
"GymID":"B0FFFGXTAP",
"GymName":"梵美丽结构瑜伽工作室",
"GymType":"体育休闲服务;运动场馆;健身中心",
"GymTypecode":"080111",
"GymAddress":"鲁磨路紫菘教师公寓D栋4单元802室(近鲁磨路联峰大厦)",
"GymLng":114.39455928990387,
"GymLat":30.513634058748014,
"GymTel":"027-87415865;13971429758",
"GymPname":"湖北省",
"GymCityname":"武汉市",
"GymAdname":"洪山区",
"GymShopinfo":"0",
"GymCheckInNum":null
},
{
"GymID":"B0FFFHB2AD",
"GymName":"欧客健身(武昌店)",
"GymType":"体育休闲服务;运动场馆;健身中心",
"GymTypecode":"080111",
"GymAddress":"静安路凯旋名邸3层",
"GymLng":114.31451739868616,
"GymLat":30.525133853477865,
"GymTel":"027-87268782",
"GymPname":"湖北省",
"GymCityname":"武汉市",
"GymAdname":"武昌区",
"GymShopinfo":"0",
"GymCheckInNum":null
},
{
"GymID":"B0FFFITNA6",
"GymName":"天女之舞生活会馆",
"GymType":"体育休闲服务;运动场馆;健身中心",
"GymTypecode":"080111",
"GymAddress":"黄孝河路30号天晖大厦A座603室",
"GymLng":114.28106020206954,
"GymLat":30.613782970704744,
"GymTel":"027-82898119;18971059987",
"GymPname":"湖北省",
"GymCityname":"武汉市",
"GymAdname":"江岸区",
"GymShopinfo":"0",
"GymCheckInNum":null
},
{
"GymID":"B0FFFJOEQW",
"GymName":"WM DANCE(街道口店)",
"GymType":"体育休闲服务;运动场馆;健身中心",
"GymTypecode":"080111",
"GymAddress":"街道口阜华大厦C座28层2803室",
"GymLng":114.34885531065812,
"GymLat":30.528403394779048,
"GymTel":"027-87855287",
"GymPname":"湖北省",
"GymCityname":"武汉市",
"GymAdname":"洪山区",
"GymShopinfo":"0",
"GymCheckInNum":null
},
{
"GymID":"B0FFFKCEO3",
"GymName":"人鱼马甲",
"GymType":"体育休闲服务;运动场馆;健身中心",
"GymTypecode":"080111",
"GymAddress":"单洞路21号",
"GymLng":114.2753221184039,
"GymLat":30.583968482134154,
"GymTel":"18827341025;15827572874",
"GymPname":"湖北省",
"GymCityname":"武汉市",
"GymAdname":"江汉区",
"GymShopinfo":"0",
"GymCheckInNum":null
},
{
"GymID":"B0FFFL4C5S",
"GymName":"喜来登EXOS健身计划",
"GymType":"体育休闲服务;运动场馆;健身中心",
"GymTypecode":"080111",
"GymAddress":"范湖路80号泛海喜来登酒店7层",
"GymLng":114.24973576288978,
"GymLat":30.604998631719127,
"GymTel":null,
"GymPname":"湖北省",
"GymCityname":"武汉市",
"GymAdname":"江汉区",
"GymShopinfo":"0",
"GymCheckInNum":null
},
{
"GymID":"B0FFFLINE1",
"GymName":"心灵瑜伽(万松园路)",
"GymType":"体育休闲服务;运动场馆;健身中心",
"GymTypecode":"080111",
"GymAddress":"万松园路287号",
"GymLng":114.26035244019126,
"GymLat":30.596185750812516,
"GymTel":null,
"GymPname":"湖北省",
"GymCityname":"武汉市",
"GymAdname":"江汉区",
"GymShopinfo":"0",
"GymCheckInNum":null
},
{
"GymID":"B0FFFLJ3OQ",
"GymName":"瑞思健身",
"GymType":"体育休闲服务;运动场馆;健身中心",
"GymTypecode":"080111",
"GymAddress":"和平大道四美塘新一佳三楼",
"GymLng":114.33608284609885,
"GymLat":30.601032879973,
"GymTel":"027-50527082;027-51115425",
"GymPname":"湖北省",
"GymCityname":"武汉市",
"GymAdname":"武昌区",
"GymShopinfo":"0",
"GymCheckInNum":null
},
{
"GymID":"B0FFFLJB2P",
"GymName":"柏菲健身(台北一路店)",
"GymType":"体育休闲服务;运动场馆;健身中心",
"GymTypecode":"080111",
"GymAddress":"台北一路2附16号4层",
"GymLng":114.26988313202655,
"GymLat":30.595306732078352,
"GymTel":"027-59210314;13971098852",
"GymPname":"湖北省",
"GymCityname":"武汉市",
"GymAdname":"江岸区",
"GymShopinfo":"0",
"GymCheckInNum":null
},
{
"GymID":"B0FFFO25MJ",
"GymName":"M.E.私人健身",
"GymType":"体育休闲服务;运动场馆;健身中心",
"GymTypecode":"080111",
"GymAddress":"和平大道绿地国际金融城B3栋1719号",
"GymLng":114.31868545474742,
"GymLat":30.58527098743705,
"GymTel":"027-86758323;15971463646;13407156547",
"GymPname":"湖北省",
"GymCityname":"武汉市",
"GymAdname":"武昌区",
"GymShopinfo":"0",
"GymCheckInNum":null
},
{
"GymID":"B0FFFO5YKK",
"GymName":"弘兴健身",
"GymType":"体育休闲服务;运动场馆;健身中心",
"GymTypecode":"080111",
"GymAddress":"湖口佳源花都商业街b座",
"GymLng":114.44057478030373,
"GymLat":30.477684596231974,
"GymTel":"027-88858813",
"GymPname":"湖北省",
"GymCityname":"武汉市",
"GymAdname":"江夏区",
"GymShopinfo":"0",
"GymCheckInNum":null
},
{
"GymID":"B0FFFOTM1Q",
"GymName":"EFC终极健身俱乐部",
"GymType":"体育休闲服务;运动场馆;健身中心",
"GymTypecode":"080111",
"GymAddress":"黄石路1号汉港大厦7楼F室",
"GymLng":114.28703071940461,
"GymLat":30.588053908593075,
"GymTel":"18627180856",
"GymPname":"湖北省",
"GymCityname":"武汉市",
"GymAdname":"江岸区",
"GymShopinfo":"0",
"GymCheckInNum":null
},
{
"GymID":"B0FFFOU0TD",
"GymName":"大华健身俱乐部",
"GymType":"体育休闲服务;运动场馆;健身中心",
"GymTypecode":"080111",
"GymAddress":"南湖花园文昌路大华二期(大华零距离健身游泳馆内)",
"GymLng":114.32064097182521,
"GymLat":30.496476895839304,
"GymTel":"15623033857",
"GymPname":"湖北省",
"GymCityname":"武汉市",
"GymAdname":"洪山区",
"GymShopinfo":"0",
"GymCheckInNum":null
},
{
"GymID":"B0FFFOY3QZ",
"GymName":"保迪菲健身",
"GymType":"体育休闲服务;运动场馆;健身中心",
"GymTypecode":"080111",
"GymAddress":"雄楚大道楚康路300号",
"GymLng":114.36475052903407,
"GymLat":30.500193931041423,
"GymTel":"027-87529488",
"GymPname":"湖北省",
"GymCityname":"武汉市",
"GymAdname":"洪山区",
"GymShopinfo":"0",
"GymCheckInNum":null
},
{
"GymID":"B0FFFP6RMB",
"GymName":"上善若水瑜伽会所",
"GymType":"体育休闲服务;运动场馆;健身中心",
"GymTypecode":"080111",
"GymAddress":"中山大道226号万安国际1304室",
"GymLng":114.25940860832118,
"GymLat":30.571334640961574,
"GymTel":"15827529901;13971655016",
"GymPname":"湖北省",
"GymCityname":"武汉市",
"GymAdname":"硚口区",
"GymShopinfo":"0",
"GymCheckInNum":null
},
{
"GymID":"B0FFFPJILS",
"GymName":"洪山宾馆健身中心",
"GymType":"体育休闲服务;运动场馆;健身中心",
"GymTypecode":"080111",
"GymAddress":"中北路1号洪山宾馆负1层",
"GymLng":114.33130000284629,
"GymLat":30.549096905562106,
"GymTel":"027-87311888",
"GymPname":"湖北省",
"GymCityname":"武汉市",
"GymAdname":"武昌区",
"GymShopinfo":"0",
"GymCheckInNum":null
},
{
"GymID":"B0FFFPKA5Z",
"GymName":"江城健身e家(江堤店)",
"GymType":"体育休闲服务;运动场馆;健身中心",
"GymTypecode":"080111",
"GymAddress":"马鹦路江堤二路江腾苑B区",
"GymLng":114.24761561335289,
"GymLat":30.537208619246563,
"GymTel":"027-83606608",
"GymPname":"湖北省",
"GymCityname":"武汉市",
"GymAdname":"汉阳区",
"GymShopinfo":"0",
"GymCheckInNum":null
},
{
"GymID":"B0FFFPYLM8",
"GymName":"玉树临风精品酒店-健身中心",
"GymType":"体育休闲服务;运动场馆;健身中心",
"GymTypecode":"080111",
"GymAddress":"光谷软件园中路7号玉树临风精品酒店M层",
"GymLng":114.39772361298364,
"GymLat":30.480244657642114,
"GymTel":"027-87228888",
"GymPname":"湖北省",
"GymCityname":"武汉市",
"GymAdname":"洪山区",
"GymShopinfo":"0",
"GymCheckInNum":null
},
{
"GymID":"B0FFFPZZIW",
"GymName":"康斐斯健身(银泰创意城店)",
"GymType":"体育休闲服务;运动场馆;健身中心",
"GymTypecode":"080111",
"GymAddress":"珞瑜路33号珞珈创意体验城11F层",
"GymLng":114.35044813881815,
"GymLat":30.52882666083795,
"GymTel":"027-87228825;027-87228826",
"GymPname":"湖北省",
"GymCityname":"武汉市",
"GymAdname":"洪山区",
"GymShopinfo":"0",
"GymCheckInNum":null
},
{
"GymID":"B0FFFQ1BBE",
"GymName":"深呼吸游泳培训联盟DB SWIM(青少年宫恒温游泳馆店)",
"GymType":"体育休闲服务;运动场馆;健身中心",
"GymTypecode":"080111",
"GymAddress":"武胜西街6-19号荣华二路爵士嘉园(青少年游泳馆)",
"GymLng":114.26000831917457,
"GymLat":30.57453512390315,
"GymTel":"15921113663",
"GymPname":"湖北省",
"GymCityname":"武汉市",
"GymAdname":"硚口区",
"GymShopinfo":"0",
"GymCheckInNum":null
},
{
"GymID":"B0FFFQ6X6G",
"GymName":"安澜瑜伽养生馆",
"GymType":"体育休闲服务;运动场馆;健身中心",
"GymTypecode":"080111",
"GymAddress":"关山大道481号光谷坐标城G区67栋701室",
"GymLng":114.4052101640176,
"GymLat":30.47753093479177,
"GymTel":"027-87656280;18971283531",
"GymPname":"湖北省",
"GymCityname":"武汉市",
"GymAdname":"洪山区",
"GymShopinfo":"0",
"GymCheckInNum":null
},
{
"GymID":"B0FFFR4NVU",
"GymName":"斯塔克健身概念工作室",
"GymType":"体育休闲服务;运动场馆;健身中心",
"GymTypecode":"080111",
"GymAddress":"徐东大街120号群星城K3-1号楼34层12室",
"GymLng":114.34299555756651,
"GymLat":30.586483023850008,
"GymTel":"15827403035",
"GymPname":"湖北省",
"GymCityname":"武汉市",
"GymAdname":"武昌区",
"GymShopinfo":"0",
"GymCheckInNum":null
},
{
"GymID":"B0FFFRIUIE",
"GymName":"傲邦尚舞钢管舞(洪山广场总店)",
"GymType":"体育休闲服务;运动场馆;健身中心",
"GymTypecode":"080111",
"GymAddress":"民主路717号金都华庭A座704(小东门建材商圈中心路何家垅车站旁)",
"GymLng":114.32063760140565,
"GymLat":30.546935006501105,
"GymTel":"027-87268752",
"GymPname":"湖北省",
"GymCityname":"武汉市",
"GymAdname":"武昌区",
"GymShopinfo":"0",
"GymCheckInNum":null
},
{
"GymID":"B0FFFRNFX2",
"GymName":"刘勇健身(司门口店)",
"GymType":"体育休闲服务;运动场馆;健身中心",
"GymTypecode":"080111",
"GymAddress":"彭刘杨路232号天合大厦2层(湖北剧院斜对面)",
"GymLng":114.29831907295228,
"GymLat":30.54214956415483,
"GymTel":"027-88859681",
"GymPname":"湖北省",
"GymCityname":"武汉市",
"GymAdname":"武昌区",
"GymShopinfo":"0",
"GymCheckInNum":null
},
{
"GymID":"B0FFFS49DK",
"GymName":"江城健身e家(江汉工会店)",
"GymType":"体育休闲服务;运动场馆;健身中心",
"GymTypecode":"080111",
"GymAddress":"常青街办事处发展大道唐家墩职工之家234号2层",
"GymLng":114.26062146927443,
"GymLat":30.618879549584552,
"GymTel":null,
"GymPname":"湖北省",
"GymCityname":"武汉市",
"GymAdname":"江汉区",
"GymShopinfo":"0",
"GymCheckInNum":null
},
{
"GymID":"B0FFFS6SGN",
"GymName":"帝豪斯健身俱乐部(汉街店)",
"GymType":"体育休闲服务;运动场馆;健身中心",
"GymTypecode":"080111",
"GymAddress":"汉街第三街区文化书店旁屈臣氏5层(汉街)",
"GymLng":114.33201282916997,
"GymLat":30.560867464983403,
"GymTel":"15392924371;13437113063",
"GymPname":"湖北省",
"GymCityname":"武汉市",
"GymAdname":"洪山区",
"GymShopinfo":"0",
"GymCheckInNum":null
},
{
"GymID":"B0FFFS6THP",
"GymName":"英菲特健身管理中心(经开万达店)",
"GymType":"体育休闲服务;运动场馆;健身中心",
"GymTypecode":"080111",
"GymAddress":"经济技术开发区万达广场金街F57-58号",
"GymLng":114.16976915415115,
"GymLat":30.510146730823383,
"GymTel":null,
"GymPname":"湖北省",
"GymCityname":"武汉市",
"GymAdname":"蔡甸区",
"GymShopinfo":"0",
"GymCheckInNum":null
},
{
"GymID":"B0FFFSSGE1",
"GymName":"武汉零极限健身私教社",
"GymType":"体育休闲服务;运动场馆;健身中心",
"GymTypecode":"080111",
"GymAddress":"沿江大道228号江景大厦A栋18层",
"GymLng":114.30510712882027,
"GymLat":30.603717212070283,
"GymTel":"17771887271",
"GymPname":"湖北省",
"GymCityname":"武汉市",
"GymAdname":"江岸区",
"GymShopinfo":"0",
"GymCheckInNum":null
},
{
"GymID":"B0FFFT2W1O",
"GymName":"city fitness城市健身(绿地606店)",
"GymType":"体育休闲服务;运动场馆;健身中心",
"GymTypecode":"080111",
"GymAddress":"和平大道840号绿地国际金融城饕界3层",
"GymLng":114.31876730854509,
"GymLat":30.58542077439354,
"GymTel":"18086036603",
"GymPname":"湖北省",
"GymCityname":"武汉市",
"GymAdname":"武昌区",
"GymShopinfo":"0",
"GymCheckInNum":null
},
{
"GymID":"B0FFFTT0QT",
"GymName":"岩石健身工作室",
"GymType":"体育休闲服务;运动场馆;健身中心",
"GymTypecode":"080111",
"GymAddress":"二七路东立国际8栋1单元403室",
"GymLng":114.30883135464143,
"GymLat":30.628519347634278,
"GymTel":"027-82817663;15607171656",
"GymPname":"湖北省",
"GymCityname":"武汉市",
"GymAdname":"江岸区",
"GymShopinfo":"0",
"GymCheckInNum":null
},
{
"GymID":"B0FFFV2I6G",
"GymName":"空灵瑜伽会所",
"GymType":"体育休闲服务;运动场馆;健身中心",
"GymTypecode":"080111",
"GymAddress":"中南中建广场C座26楼",
"GymLng":114.32712779086661,
"GymLat":30.5375397231366,
"GymTel":"13554200078",
"GymPname":"湖北省",
"GymCityname":"武汉市",
"GymAdname":"武昌区",
"GymShopinfo":"0",
"GymCheckInNum":null
},
{
"GymID":"B0FFFVCNGE",
"GymName":"百斯特健身",
"GymType":"体育休闲服务;运动场馆;健身中心",
"GymTypecode":"080111",
"GymAddress":"小洪山东区34号湖北省科技创业大厦A座4层",
"GymLng":114.35002685452486,
"GymLat":30.538493181894033,
"GymTel":"18040501559",
"GymPname":"湖北省",
"GymCityname":"武汉市",
"GymAdname":"武昌区",
"GymShopinfo":"0",
"GymCheckInNum":null
},
{
"GymID":"B0FFFWBUCT",
"GymName":"艺婵瑜伽工作室",
"GymType":"体育休闲服务;运动场馆;健身中心",
"GymTypecode":"080111",
"GymAddress":"后湖兴业路东方社区香利国庭小区12栋3单元703室",
"GymLng":114.28916490854394,
"GymLat":30.640103724406693,
"GymTel":"18871185536",
"GymPname":"湖北省",
"GymCityname":"武汉市",
"GymAdname":"江岸区",
"GymShopinfo":"0",
"GymCheckInNum":null
},
{
"GymID":"B0FFFWE8CQ",
"GymName":"玛特健身工作室(洪山广场店)",
"GymType":"体育休闲服务;运动场馆;健身中心",
"GymTypecode":"080111",
"GymAddress":"中北路1号楚天都市花园D座10D室(家乐福超市背后",
"GymLng":0,
"GymLat":114.33159038038123,
"GymTel":"30.550865750655593",
"GymPname":"027-87714388;15071498097",
"GymCityname":"湖北省",
"GymAdname":"武汉市",
"GymShopinfo":"武昌区",
"GymCheckInNum":null
},
{
"GymID":"B0FFFXNYNI",
"GymName":"木荃瑜伽",
"GymType":"体育休闲服务;运动场馆;健身中心",
"GymTypecode":"080111",
"GymAddress":"徐东大街岳家嘴东湖春树里1栋3单元1801室",
"GymLng":114.35673101861231,
"GymLat":30.578183870106574,
"GymTel":"18171117955",
"GymPname":"湖北省",
"GymCityname":"武汉市",
"GymAdname":"武昌区",
"GymShopinfo":"0",
"GymCheckInNum":null
},
{
"GymID":"B0FFFY75QZ",
"GymName":"迈索尔瑜伽(金地京汉1903店)",
"GymType":"体育休闲服务;运动场馆;健身中心",
"GymTypecode":"080111",
"GymAddress":"京汉大道金地.京汉1903商业街3层A5",
"GymLng":114.28653383106939,
"GymLat":30.592755825881206,
"GymTel":"027-82200700",
"GymPname":"湖北省",
"GymCityname":"武汉市",
"GymAdname":"江岸区",
"GymShopinfo":"0",
"GymCheckInNum":null
},
{
"GymID":"B0FFFYPL9X",
"GymName":"龙一时尚运动会所(奥山世纪城店)",
"GymType":"体育休闲服务;运动场馆;健身中心",
"GymTypecode":"080111",
"GymAddress":"和平大道奥山世纪城商场3楼A区3068",
"GymLng":114.35413138684328,
"GymLat":30.62089106764429,
"GymTel":"027-86869183",
"GymPname":"湖北省",
"GymCityname":"武汉市",
"GymAdname":"洪山区",
"GymShopinfo":"0",
"GymCheckInNum":null
},
{
"GymID":"B0FFFYY3ZQ",
"GymName":"康力行健身工作室(武胜路店)",
"GymType":"体育休闲服务;运动场馆;健身中心",
"GymTypecode":"080111",
"GymAddress":"万安国际公寓1309",
"GymLng":114.25925860907135,
"GymLat":30.57133772483528,
"GymTel":"18827632818;18717127180",
"GymPname":"湖北省",
"GymCityname":"武汉市",
"GymAdname":"硚口区",
"GymShopinfo":"0",
"GymCheckInNum":null
},
{
"GymID":"B0FFFZQ7N0",
"GymName":"武汉铁龙精武健身会馆",
"GymType":"体育休闲服务;运动场馆;健身中心|体育休闲服务;运动场馆;跆拳道场馆",
"GymTypecode":"080111|080119",
"GymAddress":"大学园路32号",
"GymLng":114.38115268954047,
"GymLat":30.44402714408899,
"GymTel":"15071110887",
"GymPname":"湖北省",
"GymCityname":"武汉市",
"GymAdname":"洪山区",
"GymShopinfo":"0",
"GymCheckInNum":null
},
{
"GymID":"B0FFFZXYY9",
"GymName":"灵极瑜伽",
"GymType":"体育休闲服务;运动场馆;健身中心",
"GymTypecode":"080111",
"GymAddress":"南湖花园恒安路雅安街东方莱茵2栋2单元102",
"GymLng":114.3045909458535,
"GymLat":30.51065569921268,
"GymTel":"13871323663;13554439590",
"GymPname":"湖北省",
"GymCityname":"武汉市",
"GymAdname":"武昌区",
"GymShopinfo":"0",
"GymCheckInNum":null
},
{
"GymID":"B0FFG07KWX",
"GymName":"目标健身工作室",
"GymType":"体育休闲服务;运动场馆;健身中心",
"GymTypecode":"080111",
"GymAddress":"徐家棚街办事处徐东大街120号群星城K3-1号16楼",
"GymLng":114.34372348704251,
"GymLat":30.586500744588747,
"GymTel":"027-65389432;13871209894",
"GymPname":"湖北省",
"GymCityname":"武汉市",
"GymAdname":"武昌区",
"GymShopinfo":"0",
"GymCheckInNum":null
},
{
"GymID":"B0FFG081M0",
"GymName":"空中健身(硚口旗舰店)",
"GymType":"体育休闲服务;运动场馆;健身中心",
"GymTypecode":"080111",
"GymAddress":"京汉大道星汇维港购物中心3层(硚口轻轨站旁)",
"GymLng":114.2446760245535,
"GymLat":30.570901152298646,
"GymTel":"027-88773002;4008801161;13080612736",
"GymPname":"湖北省",
"GymCityname":"武汉市",
"GymAdname":"硚口区",
"GymShopinfo":"0",
"GymCheckInNum":null
},
{
"GymID":"B0FFG0CKGV",
"GymName":"Allinfit私人健身俱乐部",
"GymType":"体育休闲服务;运动场馆;健身中心",
"GymTypecode":"080111",
"GymAddress":"云林街中环大厦B座504(台北路)",
"GymLng":114.27148312375363,
"GymLat":30.598168081277258,
"GymTel":"027-85833369;18163327622",
"GymPname":"湖北省",
"GymCityname":"武汉市",
"GymAdname":"江岸区",
"GymShopinfo":"0",
"GymCheckInNum":null
},
{
"GymID":"B0FFG1608B",
"GymName":"Union Fitness健身训练中心",
"GymType":"体育休闲服务;运动场馆;健身中心",
"GymTypecode":"080111",
"GymAddress":"经济技术开发区东风大道66号金利屋大厦一层(邮政银行旁巷子往里20米)",
"GymLng":114.17293951989836,
"GymLat":30.519021931882943,
"GymTel":"027-84733488;13607134429",
"GymPname":"湖北省",
"GymCityname":"武汉市",
"GymAdname":"蔡甸区",
"GymShopinfo":"0",
"GymCheckInNum":null
},
{
"GymID":"B0FFG17B66",
"GymName":"比奥德健身",
"GymType":"体育休闲服务;运动场馆;健身中心",
"GymTypecode":"080111",
"GymAddress":"书城路石牌岭南路明泽丰花苑14栋",
"GymLng":114.32463228550218,
"GymLat":30.48671602536741,
"GymTel":"027-65384568;18502706917",
"GymPname":"湖北省",
"GymCityname":"武汉市",
"GymAdname":"洪山区",
"GymShopinfo":"0",
"GymCheckInNum":null
},
{
"GymID":"B0FFG18SEM",
"GymName":"凯撒健身(钟家村店)",
"GymType":"体育休闲服务;运动场馆;健身中心",
"GymTypecode":"080111",
"GymAddress":"钟家村闽东国际1楼(近铜锣湾广场)",
"GymLng":114.25977813932187,
"GymLat":30.553458774187526,
"GymTel":"027-51236219;15807133616",
"GymPname":"湖北省",
"GymCityname":"武汉市",
"GymAdname":"汉阳区",
"GymShopinfo":"0",
"GymCheckInNum":null
},
{
"GymID":"B0FFG1D4JU",
"GymName":"武汉市武昌区艾思特健身中心",
"GymType":"体育休闲服务;运动场馆;健身中心",
"GymTypecode":"080111",
"GymAddress":"彭刘杨西路汉飞逛逛街1号楼4楼(武汉音乐学院)",
"GymLng":114.29110511893995,
"GymLat":30.542657073347325,
"GymTel":"027-88771886",
"GymPname":"湖北省",
"GymCityname":"武汉市",
"GymAdname":"武昌区",
"GymShopinfo":"0",
"GymCheckInNum":null
},
{
"GymID":"B0FFG1M17E",
"GymName":"云酷动力",
"GymType":"体育休闲服务;运动场馆;健身中心",
"GymTypecode":"080111",
"GymAddress":"汉街总部国际D座2层202室",
"GymLng":114.34071868080774,
"GymLat":30.55527840156703,
"GymTel":"027-51866666;027-87811066",
"GymPname":"湖北省",
"GymCityname":"武汉市",
"GymAdname":"武昌区",
"GymShopinfo":"0",
"GymCheckInNum":null
},
{
"GymID":"B0FFG1QP4D",
"GymName":"爱维斯健身(汉阳恒大绿洲店)",
"GymType":"体育休闲服务;运动场馆;健身中心",
"GymTypecode":"080111",
"GymAddress":"后官湖生态宜居新城管理委员会汉阳大道恒大绿洲276号",
"GymLng":114.12075570942739,
"GymLat":30.551878100630578,
"GymTel":"027-84920200;18696131707",
"GymPname":"湖北省",
"GymCityname":"武汉市",
"GymAdname":"蔡甸区",
"GymShopinfo":"0",
"GymCheckInNum":null
},
{
"GymID":"B0FFG2469V",
"GymName":"武汉爱尚舞",
"GymType":"体育休闲服务;运动场馆;健身中心",
"GymTypecode":"080111",
"GymAddress":"汉口沿江大道228号江景大厦(六合晏)B座5楼A室",
"GymLng":114.30489743727699,
"GymLat":30.603734582020095,
"GymTel":"027-87863223;13986246005",
"GymPname":"湖北省",
"GymCityname":"武汉市",
"GymAdname":"江岸区",
"GymShopinfo":"0",
"GymCheckInNum":null
},
{
"GymID":"B0FFG25TO7",
"GymName":"武汉高乐高私人健身(光谷新世界二店)",
"GymType":"体育休闲服务;运动场馆;健身中心",
"GymTypecode":"080111",
"GymAddress":"新技术开发区关山大道349号",
"GymLng":114.4084097801923,
"GymLat":30.494923494341432,
"GymTel":"027-65384445;15623888881;4008293211",
"GymPname":"湖北省",
"GymCityname":"武汉市",
"GymAdname":"洪山区",
"GymShopinfo":"0",
"GymCheckInNum":null
},
{
"GymID":"B0FFG27Z3U",
"GymName":"宝力健身游泳美容",
"GymType":"体育休闲服务;运动场馆;健身中心",
"GymTypecode":"080111",
"GymAddress":"龙城路7号锦绣龙城(光谷丽都西北门旁)",
"GymLng":114.3748152736374,
"GymLat":30.4658816393728,
"GymTel":"027-86668266;13657117724",
"GymPname":"湖北省",
"GymCityname":"武汉市",
"GymAdname":"江夏区",
"GymShopinfo":"0",
"GymCheckInNum":null
},
{
"GymID":"B0FFG28B5H",
"GymName":"唯舞独钟国际钢管舞俱乐部",
"GymType":"体育休闲服务;运动场馆;健身中心",
"GymTypecode":"080111",
"GymAddress":"徐东一路中力大厦7楼",
"GymLng":114.34056692230259,
"GymLat":30.589528171875088,
"GymTel":"027-86727779",
"GymPname":"湖北省",
"GymCityname":"武汉市",
"GymAdname":"武昌区",
"GymShopinfo":"0",
"GymCheckInNum":null
},
{
"GymID":"B0FFG28BGA",
"GymName":"天宫桑拿健身中心",
"GymType":"体育休闲服务;运动场馆;健身中心",
"GymTypecode":"080111",
"GymAddress":"球场路与苗栗路交叉口东南50米",
"GymLng":114.28829929071152,
"GymLat":30.600468266334403,
"GymTel":null,
"GymPname":"湖北省",
"GymCityname":"武汉市",
"GymAdname":"江岸区",
"GymShopinfo":"0",
"GymCheckInNum":null
},
{
"GymID":"B0FFG2EKS0",
"GymName":"武汉高乐高私人健身(恒大一店)",
"GymType":"体育休闲服务;运动场馆;健身中心",
"GymTypecode":"080111",
"GymAddress":"光谷一路10号新世界恒大华府会所营销中心二楼",
"GymLng":114.43742839685225,
"GymLat":30.505796838334174,
"GymTel":"027-65387881",
"GymPname":"湖北省",
"GymCityname":"武汉市",
"GymAdname":"洪山区",
"GymShopinfo":"0",
"GymCheckInNum":null
},
{
"GymID":"B0FFG2F7TC",
"GymName":"诺尔本健身(城市广场店)",
"GymType":"体育休闲服务;运动场馆;健身中心",
"GymTypecode":"080111",
"GymAddress":"硚口路160号武汉城市广场A座3层",
"GymLng":114.24711780674002,
"GymLat":30.57846821917467,
"GymTel":"027-83825566",
"GymPname":"湖北省",
"GymCityname":"武汉市",
"GymAdname":"硚口区",
"GymShopinfo":"0",
"GymCheckInNum":null
},
{
"GymID":"B0FFG2R4H9",
"GymName":"加州游泳健身汇",
"GymType":"体育休闲服务;运动场馆;游泳馆|体育休闲服务;运动场馆;健身中心",
"GymTypecode":"080110|080111",
"GymAddress":"徐东大街汪家墩都市经典158号",
"GymLng":114.34885877040095,
"GymLat":30.580359340309418,
"GymTel":"027-86555579;15102798353;027-65387834",
"GymPname":"湖北省",
"GymCityname":"武汉市",
"GymAdname":"洪山区",
"GymShopinfo":"0",
"GymCheckInNum":null
},
{
"GymID":"B0FFG2UH15",
"GymName":"IF健身俱乐部(群星城店)",
"GymType":"体育休闲服务;运动场馆;健身中心",
"GymTypecode":"080111",
"GymAddress":"宏祥路",
"GymLng":114.34137098554669,
"GymLat":30.58636993685574,
"GymTel":"18571520311;13006150690",
"GymPname":"湖北省",
"GymCityname":"武汉市",
"GymAdname":"武昌区",
"GymShopinfo":"0",
"GymCheckInNum":null
},
{
"GymID":"B0FFG2XIWO",
"GymName":"力康健身工作室(洪山区店)",
"GymType":"体育休闲服务;运动场馆;健身中心",
"GymTypecode":"080111",
"GymAddress":"仁和路青城华府G1-22号商铺",
"GymLng":114.38285602295082,
"GymLat":30.618930351478447,
"GymTel":"18627896198",
"GymPname":"湖北省",
"GymCityname":"武汉市",
"GymAdname":"洪山区",
"GymShopinfo":"0",
"GymCheckInNum":null
},
{
"GymID":"B0FFG38A2S",
"GymName":"艾瑞德健身",
"GymType":"体育休闲服务;运动场馆;健身中心",
"GymTypecode":"080111",
"GymAddress":"公安横街14",
"GymLng":114.29333470196727,
"GymLat":30.597600656890346,
"GymTel":"027-65020098",
"GymPname":"湖北省",
"GymCityname":"武汉市",
"GymAdname":"江岸区",
"GymShopinfo":"0",
"GymCheckInNum":null
},
{
"GymID":"B0FFG3N8YC",
"GymName":"木子瑜珈",
"GymType":"体育休闲服务;运动场馆;健身中心",
"GymTypecode":"080111",
"GymAddress":"中北路彩城大厦904号",
"GymLng":114.35112825875088,
"GymLat":30.574482829337185,
"GymTel":"18627728533",
"GymPname":"湖北省",
"GymCityname":"武汉市",
"GymAdname":"武昌区",
"GymShopinfo":"0",
"GymCheckInNum":null
},
{
"GymID":"B0FFG3Y26K",
"GymName":"倍瑞斯私人健身会所",
"GymType":"体育休闲服务;运动场馆;健身中心",
"GymTypecode":"080111",
"GymAddress":"武珞路442号中南国际城c座2单元903室",
"GymLng":114.32453813641662,
"GymLat":30.536317082678096,
"GymTel":null,
"GymPname":"湖北省",
"GymCityname":"武汉市",
"GymAdname":"武昌区",
"GymShopinfo":"0",
"GymCheckInNum":null
},
{
"GymID":"B0FFG40I41",
"GymName":"福瑞恩瑜伽会所",
"GymType":"体育休闲服务;运动场馆;健身中心",
"GymTypecode":"080111",
"GymAddress":"四维路2号附1号4层",
"GymLng":114.30225257642098,
"GymLat":30.600321623423483,
"GymTel":"027-82884985",
"GymPname":"湖北省",
"GymCityname":"武汉市",
"GymAdname":"江岸区",
"GymShopinfo":"0",
"GymCheckInNum":null
},
{
"GymID":"B0FFG4C62D",
"GymName":"金拳王武馆",
"GymType":"体育休闲服务;运动场馆;健身中心",
"GymTypecode":"080111",
"GymAddress":"京汉大道883号盈安大厦4层",
"GymLng":114.28712913493334,
"GymLat":30.593621636072452,
"GymTel":"15377095186",
"GymPname":"湖北省",
"GymCityname":"武汉市",
"GymAdname":"江岸区",
"GymShopinfo":"0",
"GymCheckInNum":null
},
{
"GymID":"B0FFG4FWDK",
"GymName":"竺源瑜伽普拉提会所",
"GymType":"体育休闲服务;运动场馆;健身中心",
"GymTypecode":"080111",
"GymAddress":"万科金域华府2层",
"GymLng":114.34485646824733,
"GymLat":30.602223710583047,
"GymTel":"027-51489972",
"GymPname":"湖北省",
"GymCityname":"武汉市",
"GymAdname":"武昌区",
"GymShopinfo":"0",
"GymCheckInNum":null
},
{
"GymID":"B0FFG4KYZN",
"GymName":"梵一瑜伽美妆佳人生活馆",
"GymType":"体育休闲服务;运动场馆;健身中心",
"GymTypecode":"080111",
"GymAddress":"马鹦路广电兰亭都荟4栋1单元105室",
"GymLng":114.24972949752792,
"GymLat":30.53830289966282,
"GymTel":"15802762283",
"GymPname":"湖北省",
"GymCityname":"武汉市",
"GymAdname":"汉阳区",
"GymShopinfo":"0",
"GymCheckInNum":null
},
{
"GymID":"B0FFG4OL1L",
"GymName":"美格菲健身中心(汉口店)",
"GymType":"体育休闲服务;运动场馆;健身中心",
"GymTypecode":"080111",
"GymAddress":"利济北路泰合广场2层",
"GymLng":114.26413562728317,
"GymLat":30.576649600129034,
"GymTel":"027-50335131;027-85511266",
"GymPname":"湖北省",
"GymCityname":"武汉市",
"GymAdname":"硚口区",
"GymShopinfo":"0",
"GymCheckInNum":null
},
{
"GymID":"B0FFG4Y0WP",
"GymName":"真格私人健身工作室",
"GymType":"体育休闲服务;运动场馆;健身中心",
"GymTypecode":"080111",
"GymAddress":"CBD泛海国际悦海园4-2-1703",
"GymLng":114.24962957853687,
"GymLat":30.606624009146287,
"GymTel":"18771049661",
"GymPname":"湖北省",
"GymCityname":"武汉市",
"GymAdname":"江汉区",
"GymShopinfo":"0",
"GymCheckInNum":null
},
{
"GymID":"B0FFG51F9M",
"GymName":"古印瑜伽会所(古印瑜伽巴黎豪庭分店)",
"GymType":"体育休闲服务;运动场馆;健身中心",
"GymTypecode":"080111",
"GymAddress":"光谷巴黎豪庭营销中心3层",
"GymLng":114.42038591673989,
"GymLat":30.508337943324143,
"GymTel":null,
"GymPname":"湖北省",
"GymCityname":"武汉市",
"GymAdname":"洪山区",
"GymShopinfo":"0",
"GymCheckInNum":null
},
{
"GymID":"B0FFG51KR2",
"GymName":"CPT一对一健身工作室",
"GymType":"体育休闲服务;运动场馆;健身中心",
"GymTypecode":"080111",
"GymAddress":"徐东大街群星城福星惠誉K3-1住宅楼7层719",
"GymLng":114.34460619829555,
"GymLat":30.586560190738837,
"GymTel":"15717170054",
"GymPname":"湖北省",
"GymCityname":"武汉市",
"GymAdname":"武昌区",
"GymShopinfo":"0",
"GymCheckInNum":null
},
{
"GymID":"B0FFG51ON3",
"GymName":"梓林.舞韵",
"GymType":"体育休闲服务;运动场馆;健身中心",
"GymTypecode":"080111",
"GymAddress":"龙阳大道人信汇六号楼21楼24号",
"GymLng":114.19963504399239,
"GymLat":30.555137611450863,
"GymTel":"027-84658318;17786049276",
"GymPname":"湖北省",
"GymCityname":"武汉市",
"GymAdname":"汉阳区",
"GymShopinfo":"0",
"GymCheckInNum":null
},
{
"GymID":"B0FFG52MEF",
"GymName":"新韵动引力健身工作室",
"GymType":"体育休闲服务;运动场馆;健身中心",
"GymTypecode":"080111",
"GymAddress":"徐东大街120号福星惠誉群星城K3-2702室",
"GymLng":114.34459920857671,
"GymLat":30.586558203565186,
"GymTel":"027-65381182",
"GymPname":"湖北省",
"GymCityname":"武汉市",
"GymAdname":"武昌区",
"GymShopinfo":"0",
"GymCheckInNum":null
},
{
"GymID":"B0FFG52P2C",
"GymName":"梵印瑜伽会馆",
"GymType":"体育休闲服务;运动场馆;健身中心",
"GymTypecode":"080111",
"GymAddress":"后湖四路香利国庭7栋2单元303",
"GymLng":114.28926863775565,
"GymLat":30.641894800741554,
"GymTel":"027-83905676;18352853790",
"GymPname":"湖北省",
"GymCityname":"武汉市",
"GymAdname":"江岸区",
"GymShopinfo":"0",
"GymCheckInNum":null
},
{
"GymID":"B0FFG54Z13",
"GymName":"麦瑟士健身",
"GymType":"体育休闲服务;运动场馆;健身中心",
"GymTypecode":"080111",
"GymAddress":"武汉广场世贸大楼9层",
"GymLng":114.26411708952713,
"GymLat":30.582940274150136,
"GymTel":"18502708466;027-85586688;027-65384030",
"GymPname":"湖北省",
"GymCityname":"武汉市",
"GymAdname":"江汉区",
"GymShopinfo":"0",
"GymCheckInNum":null
},
{
"GymID":"B0FFG59NOI",
"GymName":"玩美私人健身",
"GymType":"体育休闲服务;运动场馆;健身中心",
"GymTypecode":"080111",
"GymAddress":"京汉大道1038附28",
"GymLng":114.28724711296815,
"GymLat":30.592435921391107,
"GymTel":"027-82880515",
"GymPname":"湖北省",
"GymCityname":"武汉市",
"GymAdname":"江岸区",
"GymShopinfo":"0",
"GymCheckInNum":null
},
{
"GymID":"B0FFG6588W",
"GymName":"元泉瑜伽(中南店)",
"GymType":"体育休闲服务;运动场馆;健身中心",
"GymTypecode":"080111",
"GymAddress":"中南路2号中建广场C座28层M1-M2",
"GymLng":114.32745527922214,
"GymLat":30.537270186960416,
"GymTel":"027-87737675",
"GymPname":"湖北省",
"GymCityname":"武汉市",
"GymAdname":"武昌区",
"GymShopinfo":"0",
"GymCheckInNum":null
},
{
"GymID":"B0FFG6R9MC",
"GymName":"LOVEFIT运动训练中心",
"GymType":"体育休闲服务;运动场馆;健身中心",
"GymTypecode":"080111",
"GymAddress":"常青路126号",
"GymLng":114.2401513428296,
"GymLat":30.621067420972743,
"GymTel":null,
"GymPname":"湖北省",
"GymCityname":"武汉市",
"GymAdname":"江汉区",
"GymShopinfo":"0",
"GymCheckInNum":null
},
{
"GymID":"B0FFG77GU2",
"GymName":"倍力美健身(操场北路)",
"GymType":"体育休闲服务;运动场馆;健身中心",
"GymTypecode":"080111",
"GymAddress":"鲁磨路中国地质大学体育馆4楼",
"GymLng":114.39303787545961,
"GymLat":30.524060004739905,
"GymTel":"027-87370611",
"GymPname":"湖北省",
"GymCityname":"武汉市",
"GymAdname":"洪山区",
"GymShopinfo":"0",
"GymCheckInNum":null
},
{
"GymID":"B0FFG77L04",
"GymName":"康斐斯健身(华侨城总店)",
"GymType":"体育休闲服务;运动场馆;健身中心",
"GymTypecode":"080111",
"GymAddress":"欢乐大道168号华侨城东方里商业街S1栋临街(华侨城世纪欢乐园)",
"GymLng":114.37754796998081,
"GymLat":30.591951726189865,
"GymTel":"13026199908",
"GymPname":"湖北省",
"GymCityname":"武汉市",
"GymAdname":"洪山区",
"GymShopinfo":"0",
"GymCheckInNum":null
},
{
"GymID":"B0FFG77NEF",
"GymName":"倍力美健身(南一路)",
"GymType":"体育休闲服务;运动场馆;健身中心",
"GymTypecode":"080111",
"GymAddress":"珞瑜路华中科技大学西区学生服中心二楼",
"GymLng":114.40114451897199,
"GymLat":30.516643428682972,
"GymTel":"027-87550005",
"GymPname":"湖北省",
"GymCityname":"武汉市",
"GymAdname":"洪山区",
"GymShopinfo":"0",
"GymCheckInNum":null
},
{
"GymID":"B0FFG7BJY6",
"GymName":"菲梵舞蹈瑜伽会馆",
"GymType":"体育休闲服务;运动场馆;健身中心",
"GymTypecode":"080111",
"GymAddress":"和平大道水岸国际瞰江公寓25层(苏宁电器楼上)",
"GymLng":114.31498315138435,
"GymLat":30.577047108730945,
"GymTel":"17092666602",
"GymPname":"湖北省",
"GymCityname":"武汉市",
"GymAdname":"武昌区",
"GymShopinfo":"0",
"GymCheckInNum":null
},
{
"GymID":"B0FFG7D6W5",
"GymName":"泛海国际居住区·樱海园会所",
"GymType":"体育休闲服务;运动场馆;健身中心",
"GymTypecode":"080111",
"GymAddress":"云霞路与清江路交叉口西北100米",
"GymLng":114.24704648967078,
"GymLat":30.604940082067248,
"GymTel":"027-83522177",
"GymPname":"湖北省",
"GymCityname":"武汉市",
"GymAdname":"江汉区",
"GymShopinfo":"0",
"GymCheckInNum":null
},
{
"GymID":"B0FFG7YC57",
"GymName":"帝斯力高级私人健身会所(德成中心店)",
"GymType":"体育休闲服务;运动场馆;健身中心",
"GymTypecode":"080111",
"GymAddress":"中北路124号德成中心27楼(四号线青鱼嘴站下)",
"GymLng":114.34663295533095,
"GymLat":30.56768970094321,
"GymTel":"027-65384434;18872231239",
"GymPname":"湖北省",
"GymCityname":"武汉市",
"GymAdname":"武昌区",
"GymShopinfo":"0",
"GymCheckInNum":null
},
{
"GymID":"B0FFG7YHB0",
"GymName":"武汉市瑞斯健身工作室汉街店",
"GymType":"体育休闲服务;运动场馆;健身中心",
"GymTypecode":"080111",
"GymAddress":"中北路津津花园B栋18层(凯德1818对面中国农业银行楼上)",
"GymLng":114.33553180387479,
"GymLat":30.554126252829132,
"GymTel":null,
"GymPname":"湖北省",
"GymCityname":"武汉市",
"GymAdname":"武昌区",
"GymShopinfo":"0",
"GymCheckInNum":null
},
{
"GymID":"B0FFG811YQ",
"GymName":"极度健身工作室",
"GymType":"体育休闲服务;运动场馆;健身中心",
"GymTypecode":"080111",
"GymAddress":"金地雄楚1号商2号楼616",
"GymLng":114.38439020098909,
"GymLat":30.50008833576264,
"GymTel":"027-87775247;13554323404",
"GymPname":"湖北省",
"GymCityname":"武汉市",
"GymAdname":"洪山区",
"GymShopinfo":"0",
"GymCheckInNum":null
},
{
"GymID":"B0FFG81674",
"GymName":"华悦荟健身(青山旗舰店)",
"GymType":"体育休闲服务;运动场馆;健身中心",
"GymTypecode":"080111",
"GymAddress":"青扬十街9栋3-6号",
"GymLng":114.3972731987732,
"GymLat":30.642384337170547,
"GymTel":"027-86868608",
"GymPname":"湖北省",
"GymCityname":"武汉市",
"GymAdname":"青山区",
"GymShopinfo":"0",
"GymCheckInNum":null
},
{
"GymID":"B0FFG81LXU",
"GymName":"野马健身会",
"GymType":"体育休闲服务;运动场馆;健身中心",
"GymTypecode":"080111",
"GymAddress":"后湖大道58号众联天美国际A座2层",
"GymLng":114.26861802086997,
"GymLat":30.637520731305074,
"GymTel":"027-59705055;027-59705075",
"GymPname":"湖北省",
"GymCityname":"武汉市",
"GymAdname":"江岸区",
"GymShopinfo":"0",
"GymCheckInNum":null
},
{
"GymID":"B0FFG81O0M",
"GymName":"空中健身会所(兴业路店)",
"GymType":"体育休闲服务;运动场馆;健身中心",
"GymTypecode":"080111",
"GymAddress":"兴业路与金桥大道交汇处金岛金桥壹号3层",
"GymLng":114.28145385230201,
"GymLat":30.637030819309672,
"GymTel":"13080612736;027-88223007",
"GymPname":"湖北省",
"GymCityname":"武汉市",
"GymAdname":"江岸区",
"GymShopinfo":"0",
"GymCheckInNum":null
},
{
"GymID":"B0FFG8212Q",
"GymName":"伽斯特健身",
"GymType":"体育休闲服务;运动场馆;健身中心",
"GymTypecode":"080111",
"GymAddress":"鲁磨路243号国光大厦8层",
"GymLng":114.39406205965862,
"GymLat":30.514243925989156,
"GymTel":"027-65382507;027-87858768",
"GymPname":"湖北省",
"GymCityname":"武汉市",
"GymAdname":"洪山区",
"GymShopinfo":"0",
"GymCheckInNum":null
},
{
"GymID":"B0FFG835Q3",
"GymName":"正健身(三阳路旗舰店)",
"GymType":"体育休闲服务;运动场馆;健身中心|公司企业;公司;公司",
"GymTypecode":"080111|170200",
"GymAddress":"解放大道1208号新长江国际大厦A座3层",
"GymLng":114.29540062460696,
"GymLat":30.603229118934383,
"GymTel":"18827337338",
"GymPname":"湖北省",
"GymCityname":"武汉市",
"GymAdname":"江岸区",
"GymShopinfo":"0",
"GymCheckInNum":null
},
{
"GymID":"B0FFG8ISGF",
"GymName":"岩石健身私教工作室(泛海PLUS店)",
"GymType":"体育休闲服务;运动场馆;健身中心",
"GymTypecode":"080111",
"GymAddress":"泛海国际SOHO城5栋905室",
"GymLng":114.24354970050402,
"GymLat":30.600792860675742,
"GymTel":"027-83809005;18607131023;15050264350",
"GymPname":"湖北省",
"GymCityname":"武汉市",
"GymAdname":"江汉区",
"GymShopinfo":"0",
"GymCheckInNum":null
},
{
"GymID":"B0FFG8Q65X",
"GymName":"合美健身会所",
"GymType":"体育休闲服务;运动场馆;健身中心",
"GymTypecode":"080111",
"GymAddress":"淮海路泛海soho城尚街二期四栋三层3-13-14-15号",
"GymLng":114.24314932233202,
"GymLat":30.60192440370414,
"GymTel":"027-59101169",
"GymPname":"湖北省",
"GymCityname":"武汉市",
"GymAdname":"江汉区",
"GymShopinfo":"0",
"GymCheckInNum":null
},
{
"GymID":"B0FFG948LZ",
"GymName":"美国帕维尔健身会所(湖北区总部)",
"GymType":"体育休闲服务;运动场馆;健身中心",
"GymTypecode":"080111",
"GymAddress":"新华下路169号菱湖上品4楼",
"GymLng":114.26552907920008,
"GymLat":30.61395411091566,
"GymTel":"027-85668559;13037185631",
"GymPname":"湖北省",
"GymCityname":"武汉市",
"GymAdname":"江汉区",
"GymShopinfo":"0",
"GymCheckInNum":null
},
{
"GymID":"B0FFG9IDVU",
"GymName":"百城康祺游泳健身(欢乐汇店)",
"GymType":"体育休闲服务;运动场馆;健身中心",
"GymTypecode":"080111",
"GymAddress":"书城路18号光大银行2层",
"GymLng":114.33374762310551,
"GymLat":30.508284448495385,
"GymTel":"18973097610;027-87680102",
"GymPname":"湖北省",
"GymCityname":"武汉市",
"GymAdname":"洪山区",
"GymShopinfo":"0",
"GymCheckInNum":null
},
{
"GymID":"B0FFG9NWHW",
"GymName":"EAN私人健身工作室(人信汇店)",
"GymType":"体育休闲服务;运动场馆;健身中心",
"GymTypecode":"080111",
"GymAddress":"龙阳大道人信汇B座6号楼2305(地铁3号线龙阳村站D出口星巴克咖啡旁)",
"GymLng":114.20016837593712,
"GymLat":30.554484618620037,
"GymTel":"13476118259;13687147773",
"GymPname":"湖北省",
"GymCityname":"武汉市",
"GymAdname":"汉阳区",
"GymShopinfo":"0",
"GymCheckInNum":null
},